ward,type,location,year,est_cost,id,address,lat,long,query
49,Alley Speed Hump Menu  2,037 W ESTES AVE,2019,700,42895,037 W ESTES AVE,42.0111179,-87.6860386,google
9,Sidewalk Menu,10 E 91ST ST,2018,34065.71,7178,10 E 91ST ST,41.729057116000035,-87.62341537099996,census
43,Street Resurfacing Menu,10 E SCOTT ST,2021,12701.75,38055,10 E SCOTT ST,41.90486923200007,-87.62835731899997,census
29,Street Speed Hump Menu,100 S MASON AVE,2022,3525,25591,100 S MASON AVE,41.8789683,-87.773289,google
4,Miscellaneous-Other,1000 E 43 rd Street,2007,257000,3294,1000 E 43 rd Street,41.817112,-87.601473,google
4,Miscellaneous-Other,1000 E 43 Street,2006,90000,3263,1000 E 43 Street,41.817112,-87.601473,google
4,Miscellaneous CDOT Projects,1000 E 43RD ST,2016,831,3610,1000 E 43RD ST,41.816891989000055,-87.60058004499996,census
37,Bollard Menu,1000 N CICERO AV,2010,800,32563,1000 N CICERO AV,41.86831582000008,-87.74483270699994,census
37,Street Speed Hump Menu,1000 N KARLOV AVE,2018,3700,32917,1000 N KARLOV AVE,41.86902138900007,-87.72772246699998,census
27,Alley Resurfacing Menu,1000 N RIDGEWAY AVE,2016,35479.79,23734,1000 N RIDGEWAY AVE,41.89922299600005,-87.72010320799995,census
27,POD Camera,1000 N. Avers,2010,13000,23518,1000 N. Avers,41.8992301,-87.7228831,google
16,Guardrail Menu,1000 S MORGAN ST,2007,18024,13969,1000 S MORGAN ST,41.86931714100007,-87.65112547799998,census
43,Sidewalk Menu,1000 W ARMITAGE AVE,2018,5242.22,37948,1000 W ARMITAGE AVE,41.9183532,-87.6536,google
43,Miscellaneous-CDOT,1000 W. Armitage Ave.,2008,454,37285,1000 W. Armitage Ave.,41.91811113700004,-87.65344737899994,census
10,Sidewalk Menu,10000 S COMMERCIAL AVE,2018,4838,8274,10000 S COMMERCIAL AVE,41.71326334500003,-87.55096231999994,census
10,Street Lighting,10000 S EWING AV,2008,500,7847,10000 S EWING AV,41.71361592300008,-87.53527998099997,census
10,Sidewalk Menu,10001 S COMMERCIAL AVE,2018,4838,8274,10001 S COMMERCIAL AVE,41.71326133300005,-87.55094788099996,census
10,Sidewalk Menu,10005 S AVENUE N,2017,2062.82,8247,10005 S AVENUE N,41.7136689,-87.5384161,google
10,Sidewalk Menu,10005 S AVENUE N,2018,2217,8289,10005 S AVENUE N,41.7136689,-87.5384161,google
5,Sidewalk Menu,1001 E 53RD ST,2019,14490,4427,1001 E 53RD ST,41.7992234,-87.6011175,google
37,Alley Resurfacing Menu (1-1),1001 N LECLAIRE AVE,2019,18077.875,32926,1001 N LECLAIRE AVE,41.89875755200006,-87.75323482699997,census
37,Alley Speed Hump Menu,1001 N LECLAIRE AVE,2019,700,32940,1001 N LECLAIRE AVE,41.89875755200006,-87.75323482699997,census
27,Sidewalk Menu,1001 N MILWAUKEE AVE,2015,10715,23701,1001 N MILWAUKEE AVE,41.9001325,-87.6610042,google
43,Miscellaneous CDOT Projects,1001 W ALTGELD ST,2018,616.190476190476,37944,1001 W ALTGELD ST,41.927189577000036,-87.65371370499997,census
44,Miscellaneous CDOT Projects,1001 W WELLINGTON AVE,2019,582.5,38786,1001 W WELLINGTON AVE,41.93626685900006,-87.65402863599996,census
34,Sidewalk Menu,10011 S CHARLES ST,2019,4967.22,30283,10011 S CHARLES ST,41.711020320000046,-87.66037308199998,census
7,Bollard Menu,10015 S PAXTON AV,2007,714,5157,10015 S PAXTON AV,41.71273269300008,-87.56940287199996,census
25,Sidewalk Menu,1002 W 18TH ST,2020,23607.86,22188,1002 W 18TH ST,41.8582181,-87.6516654,google
7,Sidewalk Menu,10031 S MERRILL AVE,2022,1673.71,5773,10031 S MERRILL AVE,41.7124442,-87.5703043,google
10,Sidewalk Menu,10035 S AVENUE N,2018,8642,8282,10035 S AVENUE N,41.7128379,-87.5386345,google
26,Sidewalk Menu,1004 N KEDZIE AVE,2019,24507.17,22988,1004 N KEDZIE AVE,41.89937826400006,-87.70668380199999,census
10,Sidewalk Menu,10043 S AVENUE N,2018,8642,8282,10043 S AVENUE N,41.7126336,-87.5386437,google
10,Sidewalk Menu,10047 S AVENUE N,2018,8642,8282,10047 S AVENUE N,41.7125105,-87.5386628,google
27,Concrete Alley Menu,1008 N LARRABEE ST,2017,88000,23798,1008 N LARRABEE ST,41.90078665300007,-87.64311027899998,census
21,Sidewalk Menu,1008 W 89TH ST,2017,21561.9,18148,1008 W 89TH ST,41.7324531,-87.6487766,google
43,Curb & Gutter Menu,1009 W ARMITAGE AVE,2017,1500.87,37877,1009 W ARMITAGE AVE,41.9178794,-87.6538137,google
21,Bollard Menu,101 W 83RD ST,2022,4491.67,18457,101 W 83RD ST,41.74370459200003,-87.62105625999999,census
4,3 LPR No POD Cameras: 101 W Ida B Wells; 110 E Roosevelt Rd; 600 S State St,101 W IDA B WELLS DR,2021,27410,3763,101 W IDA B WELLS DR,41.8753788,-87.6310683,google
10,Sidewalk Menu,10108 S AVENUE M,2016,4661.01,8203,10108 S AVENUE M,41.711671100000046,-87.53769995299996,census
7,Sidewalk Menu,10111 S CRANDON AVE,2019,4083.65,5664,10111 S CRANDON AVE,41.71138364600006,-87.56696682099994,census
10,Sidewalk Menu,10116 S EWING AVE,2019,12951,8333,10116 S EWING AVE,41.71155738600004,-87.53528411299999,census
4,Curb & Gutter Menu,1012 E 47TH ST,2015,5748,3569,1012 E 47TH ST,41.8100496,-87.6012817,google
7,Sidewalk Menu,10120 S CALHOUN AVE,2022,5489.71,5774,10120 S CALHOUN AVE,41.71129148600005,-87.56214385399994,census
10,Sidewalk Menu,10125 S EWING AVE,2017,10410.75,8239,10125 S EWING AVE,41.711425322000025,-87.53526988299996,census
7,Sidewalk Menu,10127 S CRANDON AVE,2020,6955.66,5694,10127 S CRANDON AVE,41.711133379000046,-87.56696277199995,census
25,Street Light Upgrade Menu,1013 W 19TH ST,2016,450,22047,1013 W 19TH ST,41.8565593,-87.6521981,google
25,Alley Resurfacing Menu,1014 S MAY ST,2018,22179.44,22101,1014 S MAY ST,41.868939115000046,-87.65524383599995,census
44,Alley Apron Menu,1014 W OAKDALE AVE,2017,10095.68,38691,1014 W OAKDALE AVE,41.93534453900003,-87.65492634599997,census
44,Alley Apron Menu,1014 W WOLFRAM ST,2017,7722.33,38688,1014 W WOLFRAM ST,41.933540436000044,-87.65455214999997,census
7,Sidewalk Menu,10141 S CRANDON AVE,2020,6255.14,5696,10141 S CRANDON AVE,41.71091437300004,-87.56695884399994,census
43,Alley Apron Menu,1015 W ALTGELD ST,2018,8027.19,37906,1015 W ALTGELD ST,41.9269428,-87.6543134,google
44,Alley Apron Menu,1015 W OAKDALE AVE,2017,8696.35,38690,1015 W OAKDALE AVE,41.9351211,-87.6546216,google
34,Alley Apron Menu,10153 S WINSTON AVE,2018,27957.01,30238,10153 S WINSTON AVE,41.709839800000054,-87.65569754099994,census
9,Bollard Menu,10155 S STATE ST,2005,395,6738,10155 S STATE ST,41.7091117,-87.6232882,google
10,Guardrail Menu,10156 S INDIANAPOLIS AV,2009,7500,7856,10156 S INDIANAPOLIS AV,41.710976463000065,-87.53340529999997,census
43,Miscellaneous CDOT Projects,1016 W ALTGELD ST,2018,616.190476190476,37944,1016 W ALTGELD ST,41.92718675000003,-87.65444109599997,census
48,Sidewalk Menu,1017 W ARDMORE AVE,2020,4409.79,42139,1017 W ARDMORE AVE,41.98731326300003,-87.65757952199993,census
46,Alley Apron Menu,1017 W IRVING PARK RD,2017,9226.72,40099,1017 W IRVING PARK RD,41.954463099000066,-87.65574756499996,census
26,Street Speed Hump Menu,1019 N SACRAMENTO AVE,2019,2350,23008,1019 N SACRAMENTO AVE,41.8998878,-87.7014122,google
6,Sidewalk Menu,102 W 77TH ST,2022,5440.63,5039,102 W 77TH ST,41.7547171,-87.6272519,google
2,Sidewalk Menu,102 W GERMANIA PL,2017,38823.28,2295,102 W GERMANIA PL,41.91043476800007,-87.63171695999995,census
2,Sidewalk Menu,102 W GERMANIA PL,2018,63565.31,2339,102 W GERMANIA PL,41.91043476800007,-87.63171695999995,census
1,Alley Resurfacing Menu,1020 N MARSHFIELD AVE,2022,19151.03,984,1020 N MARSHFIELD AVE,41.900527124000064,-87.66863903799998,census
25,Sidewalk Menu,1020 W MONROE ST,2019,14903.4,22145,1020 W MONROE ST,41.880577,-87.6531859,google
9,POD Camera,10200 S. LaSalle,2009,24000,6923,10200 S. LaSalle,41.7088129,-87.6274502,google
9,POD Camera,10200 S. State,2009,24000,6921,10200 S. State,41.7088494,-87.6238644,google
8,Pedestrian Refuge Island Menu,10201 S COTTAGE GROVE AVE,2021,40741.11,6530,10201 S COTTAGE GROVE AVE,41.7086719,-87.6054399,google
10,Miscellaneous-CDOT,10212 S. Ewing Av.,2007,2259,7720,10212 S. Ewing Av.,41.70971555700004,-87.53529165599997,census
27,Alley Speed Hump Menu,1022 N ST LOUIS AVE,2018,1400,23831,1022 N ST LOUIS AVE,41.8998441,-87.7142968,google
9,Sidewalk Menu,10222 S ST LAWRENCE AVE,2018,496.66,7182,10222 S ST LAWRENCE AVE,41.7084811,-87.6092136,google
10,Bollard Menu,10224 S VAN VLISSINGEN RD,2008,630,7805,10224 S VAN VLISSINGEN RD,41.70945564800007,-87.56892638899996,census
34,Sidewalk Menu,10228 S BEVERLY AVE,2022,13202.29,30400,10228 S BEVERLY AVE,41.70814082900006,-87.65666341299999,census
48,Alley Apron Menu,1023 W THORNDALE AVE,2017,10060.74,41879,1023 W THORNDALE AVE,41.990080413000044,-87.65663086999996,census
32,Chicago Park District,1023 W Wrightwood,2006,10000,27946,1023 W Wrightwood,41.928599,-87.654708,google
10,Sidewalk Menu,10231 S AVENUE M,2019,6900,8344,10231 S AVENUE M,41.70942660900005,-87.53768928499994,census
10,Sidewalk Menu,10232 S AVENUE N,2021,16621.72,8419,10232 S AVENUE N,41.7090274,-87.5392854,google
7,Miscellaneous CDOT Projects,10245 S OGLESBY AVE,2020,13758.19,5688,10245 S OGLESBY AVE,41.70925822700008,-87.56572481799998,census
25,Sidewalk Menu,1025 W 16TH ST,2016,1760.75,22041,1025 W 16TH ST,41.859610000000004,-87.6520051,google
25,Sidewalk Menu,1025 W 16TH ST,2017,61497.61,22080,1025 W 16TH ST,41.859610000000004,-87.6520051,google
10,Sidewalk Menu,10251 S EWING AVE,2015,7260,8149,10251 S EWING AVE,41.70911975900003,-87.53527735299997,census
10,Sidewalk Menu,10253 S COMMERCIAL AVE,2020,8416.75,8367,10253 S COMMERCIAL AVE,41.70919974900005,-87.55256936199999,census
10,Sidewalk Menu,10256 S AVENUE M,2022,18477.15,8491,10256 S AVENUE M,41.70901987700006,-87.53770397299996,census
10,Sidewalk Menu,10258 S AVENUE G,2021,7252.28,8420,10258 S AVENUE G,41.70869515800007,-87.53166610199997,census
10,Sidewalk Menu,10258 S AVENUE L,2022,3275.21,8492,10258 S AVENUE L,41.70899033300003,-87.53649730299998,census
48,Curb & Gutter Menu,1026 W AINSLIE ST,2020,9121.14,42132,1026 W AINSLIE ST,41.9717016,-87.6561285,google
1,Sidewalk Menu,1027 N HERMITAGE AVE,2019,2702.48,878,1027 N HERMITAGE AVE,41.9005151,-87.6708076,google
44,Street Light Upgrade Menu,1028 W NEWPORT AVE,2017,500,38730,1028 W NEWPORT AVE,41.944464882000034,-87.65569157099998,census
44,Alley Apron Menu,1028 W WOLFRAM ST,2017,10119.55,38674,1028 W WOLFRAM ST,41.93353931100006,-87.65463881799997,census
43,Miscellaneous CDOT Projects,1029 W ALTGELD ST,2018,616.190476190476,37944,1029 W ALTGELD ST,41.92717455500008,-87.65451702399997,census
10,Sidewalk Menu,10300 S EWING AVE,2019,2725.5,8342,10300 S EWING AVE,41.70815715200007,-87.53529465999998,census
10,Bollard Menu,10300 S TORRENCE AV,2009,2520,7851,10300 S TORRENCE AV,41.70802707300004,-87.55966541999999,census
10,Sidewalk Menu,10301 S AVENUE G,2017,8567.24,8229,10301 S AVENUE G,41.70807426600004,-87.53165141499994,census
42,Street Light Pole Painting Menu,1031 N STATE ST,2017,3600,36917,1031 N STATE ST,NA,NA,census
43,Miscellaneous CDOT Projects,1031 W ALTGELD ST,2018,616.190476190476,37944,1031 W ALTGELD ST,41.92717413300005,-87.65454310899997,census
34,Bollard Menu,10314 S EMERALD AV,2008,1428,29669,10314 S EMERALD AV,41.70618738100006,-87.64160111399997,census
19,Alley Speed Hump Menu,10315 S CAMPBELL AVE,2022,350,16845,10315 S CAMPBELL AVE,41.7058797,-87.6838231,google
34,Alley Apron Menu,10317 S UNION AVE,2019,35326.55,30275,10317 S UNION AVE,41.706193434000056,-87.64037583299995,census
10,Sidewalk Menu,10319 S AVENUE H,2017,6046.4,8238,10319 S AVENUE H,41.707792392000044,-87.53286140099999,census
9,Sidewalk Menu,10319 S FOREST AVE,2018,2717.36,7181,10319 S FOREST AVE,41.706504978000055,-87.61617667099995,census
44,Street Light Upgrade Menu,1032 W NEWPORT AVE,2017,500,38730,1032 W NEWPORT AVE,41.94446359600005,-87.65577486299998,census
10,Sidewalk Menu,10326 S AVENUE J,2020,8700.41,8375,10326 S AVENUE J,41.70766697200003,-87.53408607399996,census
10,Sidewalk Menu,10331 S AVENUE H,2021,6127.74,8421,10331 S AVENUE H,41.70760426100003,-87.53286140099999,census
9,Sidewalk Menu,10337 S FOREST AVE,2019,4406,7220,10337 S FOREST AVE,41.706293490000064,-87.61617077299996,census
46,Curb & Gutter Menu,1034 W MONTROSE AVE,2018,1888.14,40144,1034 W MONTROSE AVE,41.96176856200003,-87.65587325899997,census
34,Curb & Gutter Menu,10344 S SANGAMON ST,2016,18508.7,30154,10344 S SANGAMON ST,41.70580494500007,-87.64645254899995,census
10,Sidewalk Menu,10348 S AVENUE J,2022,1220.83,8493,10348 S AVENUE J,41.70732206500003,-87.53408607399996,census
37,Curb & Gutter Menu,1035 N LATROBE AVE,2016,8282.78,32789,1035 N LATROBE AVE,41.89925808900006,-87.75692587999998,census
21,Sidewalk Menu,1035 W 92ND PL,2019,3882.93,18300,1035 W 92ND PL,41.7257021,-87.6495795,google
19,Street Light Upgrade,10352 S FAIRFIELD AVE,2013,400,16594,10352 S FAIRFIELD AVE,41.7053618,-87.6898055,google
19,POD Camera,10354 S Charles,2006,24000,16332,10354 S Charles,41.70549105400005,-87.65811608799999,census
34,Guardrail Menu,10358 S LOWE AV,2006,2080,29528,10358 S LOWE AV,41.705238,-87.6394715,google
44,Sidewalk Menu,1036 W WAVELAND AVE,2019,40783.53,38795,1036 W WAVELAND AVE,41.94902445800005,-87.65589742599997,census
43,Miscellaneous CDOT Projects,1039 W ALTGELD ST,2018,616.190476190476,37944,1039 W ALTGELD ST,41.927172444000064,-87.65464744999997,census
46,Sidewalk Menu,1039 W LAWRENCE AVE,2017,3164.77,40124,1039 W LAWRENCE AVE,41.9689253,-87.6566159,google
42,Sidewalk Menu,1040 N LAKE SHORE DR,2017,1599.17,36912,1040 N LAKE SHORE DR,41.90168944900006,-87.62429318899996,census
29,Curb & Gutter Menu,1040 S MONITOR AVE,2021,5349.11,25466,1040 S MONITOR AVE,41.8679526,-87.7708466,google
48,Alley Apron Menu,1040 W AINSLIE ST,2017,5834.9,41871,1040 W AINSLIE ST,41.9715579,-87.6564544,google
44,Street Light Upgrade Menu,1040 W NEWPORT AVE,2017,500,38730,1040 W NEWPORT AVE,41.94446102300003,-87.65594144699998,census
44,Miscellaneous CDOT Projects,1040 W NEWPORT AVE,2019,582.5,38786,1040 W NEWPORT AVE,41.94446102300003,-87.65594144699998,census
11,Sidewalk Menu,1041 W 31ST PL,2022,5710.91,9340,1041 W 31ST PL,41.8368695,-87.6527585,google
10,Sidewalk Menu,10414 S EWING AVE,2019,22300,8326,10414 S EWING AVE,41.70603007400007,-87.53529203999994,census
48,Alley Apron Menu,1042 W GLENLAKE AVE,2017,8771.51,41883,1042 W GLENLAKE AVE,41.99232998900004,-87.65789490999998,census
43,Alley Apron Menu,1042 W MONTANA ST,2019,10338.69,37968,1042 W MONTANA ST,41.92633234500005,-87.65480969299995,census
44,Street Light Upgrade Menu,1042 W NEWPORT AVE,2017,500,38730,1042 W NEWPORT AVE,41.9446662,-87.6558889,google
19,Street Light Upgrade,10420 S LEAVITT ST,2012,350,16561,10420 S LEAVITT ST,41.70416510200005,-87.67672033699995,census
9,Sidewalk Menu,10425 S FOREST AVE,2021,5846.26,7289,10425 S FOREST AVE,41.70492611900005,-87.61613258299997,census
7,Alley Resurfacing Menu,10426 S OGLESBY AVE,2019,9170.1,5641,10426 S OGLESBY AVE,41.70605558500006,-87.56569464699999,census
19,POD Camera,10431 W Longwood,2007,12000,16379,10431 W Longwood,41.7033598,-87.6702879,google
10,Sidewalk Menu,10436 S AVENUE J,2021,4821.48,8422,10436 S AVENUE J,41.705669389000036,-87.53408607399996,census
10,Sidewalk Menu,10446 S AVENUE M,2022,1875.02,8495,10446 S AVENUE M,41.70553219000004,-87.53771017499997,census
10,Sidewalk Menu,10449 S AVENUE F,2016,10610.91,8186,10449 S AVENUE F,41.70546929900007,-87.53044142899995,census
44,Alley Apron Menu,1045 W BARRY AVE,2022,11002.56,38885,1045 W BARRY AVE,41.938061066000046,-87.65581286599996,census
46,Alley Apron Menu,1045 W IRVING PARK RD,2017,10532.9,40100,1045 W IRVING PARK RD,41.95445478900007,-87.65622593499995,census
34,Sidewalk Menu,10457 S EMERALD AVE,2022,7896.13,30401,10457 S EMERALD AVE,41.7034577,-87.64125,google
10,Sidewalk Menu,10458 S AVENUE H,2019,15405,8331,10458 S AVENUE H,41.70533390600008,-87.53287356699997,census
9,Sidewalk Menu,10458 S CALUMET AVE,2020,8545.405,7255,10458 S CALUMET AVE,41.7037809,-87.6151985,google
43,Miscellaneous CDOT Projects,1046 W MONTANA ST,2018,616.190476190476,37944,1046 W MONTANA ST,41.926331652000044,-87.65485142599994,census
48,Sidewalk Menu,1049 W BRYN MAWR AVE,2022,4316.01,42234,1049 W BRYN MAWR AVE,41.983675738000045,-87.65677943699995,census
4,Sidewalk Menu,1050 E 49TH ST,2016,5525.57,3621,1050 E 49TH ST,41.805970184000046,-87.60039220899995,census
27,Street Resurfacing Menu,1050 N CENTRAL PARK AVE,2016,6213.85,23765,1050 N CENTRAL PARK AVE,41.900053600000035,-87.71647151199994,census
27,Street Speed Hump Menu,1050 N CENTRAL PARK AVE,2017,3700,23823,1050 N CENTRAL PARK AVE,41.900053600000035,-87.71647151199994,census
49,Chicago Park District,1050 W ALBION AVE,2014,75000,42639,1050 W ALBION AVE,42.00259408000005,-87.65839426099996,census
49,Sidewalk Menu,1050 W COLUMBIA AVE,2018,7981.58,42873,1050 W COLUMBIA AVE,42.004662480000036,-87.65810484799994,census
9,POD Camera,10500 S. State,2009,24000,6920,10500 S. State,41.7033704,-87.623673,google
10,Concrete Alley Menu,10501 S AVENUE E,2019,188000,8315,10501 S AVENUE E,41.704399124000076,-87.52923144299996,census
10,Sidewalk Menu,10501 S AVENUE L,2022,7942.58,8496,10501 S AVENUE L,41.70442453100003,-87.53648331999995,census
10,Sidewalk Menu,10505 S EWING AVE,2016,21886.33,8200,10505 S EWING AVE,41.704357851000054,-87.53527505699998,census
10,Sidewalk Menu,10507 S AVENUE L,2016,10964.81,8190,10507 S AVENUE L,41.704330465000055,-87.53648331999995,census
37,Sidewalk Menu,1051 N CENTRAL AVE,2016,1117,32792,1051 N CENTRAL AVE,41.8999768,-87.7652538,google
43,Miscellaneous CDOT Projects,1051 W MONTANA ST,2018,616.190476190476,37944,1051 W MONTANA ST,41.92630782600003,-87.65553797699994,census
10,Sidewalk Menu,10511 S AVENUE F,2016,3017.89,8187,10511 S AVENUE F,41.70424236900004,-87.53044142899995,census
34,Sidewalk Menu,10519 S PARNELL AVE,2021,10224.12,30349,10519 S PARNELL AVE,41.70292448500004,-87.63664956899999,census
48,Alley Apron Menu,1052 W THORNDALE AVE,2017,10624.98,41880,1052 W THORNDALE AVE,41.9901966,-87.6576077,google
27,Alley Resurfacing Menu,1053 N ORLEANS ST,2017,13862.175,23790,1053 N ORLEANS ST,41.90158471500007,-87.63735645599996,census
48,Alley Apron Menu,1053 W THORNDALE AVE,2017,8130.21,41881,1053 W THORNDALE AVE,41.99006133100005,-87.65774451499999,census
11,Sidewalk Menu,1054 W 34TH PL,2022,2173.56,9341,1054 W 34TH PL,41.83159096300005,-87.65258972699996,census
48,Curb & Gutter Menu,1054 W BERWYN AVE,2020,11256.855,42134,1054 W BERWYN AVE,41.9781847,-87.6571569,google
10,Sidewalk Menu,10546 S AVENUE G,2022,4359.86,8497,10546 S AVENUE G,41.703683470000044,-87.53166208099998,census
48,Street Lighting,1055 W BRYN MAWR AVE,2011,500,41643,1055 W BRYN MAWR AVE,41.983674826000026,-87.65684234699995,census
48,Sidewalk Menu,1055 W BRYN MAWR AVE,2019,3342.29,42082,1055 W BRYN MAWR AVE,41.983674826000026,-87.65684234699995,census
10,Sidewalk Menu,10554 S AVENUE F,2020,4739.12,8368,10554 S AVENUE F,41.70432733200005,-87.52649467199996,census
10,Bollard Menu,10556 S AVENUE B,2008,1428,7804,10556 S AVENUE B,41.70432034600003,-87.52649479899998,census
34,Alley Apron Menu,10558 S PEORIA ST,2022,36512.5,30389,10558 S PEORIA ST,41.7016045,-87.6454334,google
29,Curb & Gutter Menu,1056 N MAYFIELD AVE,2019,6244.77,25383,1056 N MAYFIELD AVE,41.868110330000036,-87.77177331699994,census
27,Alley Resurfacing Menu,1057 N RIDGEWAY AVE,2015,44161,23690,1057 N RIDGEWAY AVE,41.900117572000056,-87.72011804299996,census
17,Miscellaneous CDOT Projects,1057 W 79TH ST,2022,150,15374,1057 W 79TH ST,41.750546437000025,-87.65024623499994,census
37,Sidewalk Menu,1058 N KEYSTONE AVE,2017,3941.2,32845,1058 N KEYSTONE AVE,41.90005625200007,-87.72745886999996,census
37,Sidewalk Menu,1058 N KEYSTONE AVE,2018,804.8,32893,1058 N KEYSTONE AVE,41.90005625200007,-87.72745886999996,census
21,Sidewalk Menu,1058 W 92ND PL,2021,6120.3,18397,1058 W 92ND PL,41.7262004,-87.6504533,google
29,Curb & Gutter Menu,1059 N MAYFIELD AVE,2019,5163.43666666667,25384,1059 N MAYFIELD AVE,41.9001081,-87.7725689,google
21,Sidewalk Menu,1059 W 92ND PL,2022,9522.48,18467,1059 W 92ND PL,41.7256919,-87.6504477,google
10,Sidewalk Menu,10600 S AVENUE G,2017,14938.86,8231,10600 S AVENUE G,41.70257264900005,-87.53166208099998,census
10,Sidewalk Menu,10609 S AVENUE G,2019,6579,8324,10609 S AVENUE G,41.702445741000076,-87.53164739599998,census
10,Sidewalk Menu,10613 S AVENUE D,2021,2981.27,8423,10613 S AVENUE D,41.70203759000003,-87.52816617299999,census
10,Sidewalk Menu,10614 S MACKINAW AVE,2018,2899,8276,10614 S MACKINAW AVE,41.70202385400006,-87.54256803599998,census
10,Sidewalk Menu,10614 S MACKINAW AVE,2018,9093,8291,10614 S MACKINAW AVE,41.70202385400006,-87.54256803599998,census
34,Curb & Gutter Menu,10614 S MARTIN ST,2021,4882.97,30343,10614 S MARTIN ST,41.700670126000034,-87.65599672199994,census
9,Traffic Signal Miscellaneous Menu,10616 S EDBROOKE AVE,2016,141,7135,10616 S EDBROOKE AVE,41.70172540300007,-87.61967879799994,census
9,Street Lighting,10618 S DAUPHIN AVE,2011,300,6963,10618 S DAUPHIN AVE,41.70120027100006,-87.60888813199995,census
10,Sidewalk Menu,10621 S MACKINAW AVE,2018,7715,8290,10621 S MACKINAW AVE,41.70195501000006,-87.54255334999993,census
10,Sidewalk Menu,10626 S AVENUE O,2021,2098.04,8424,10626 S AVENUE O,41.702068008000026,-87.54009892099998,census
10,Sidewalk Menu,10627 S AVENUE F,2017,3933.81,8233,10627 S AVENUE F,41.70216057600004,-87.53044142899995,census
34,Sidewalk Menu,10636 S PEORIA ST,2016,1582.375,30163,10636 S PEORIA ST,41.70072830000004,-87.64507711399995,census
9,Bollard Menu,10645 S INDIANA AV,2008,714,6846,10645 S INDIANA AV,41.70114248800007,-87.61846564199999,census
34,Sidewalk Menu,10656 S PEORIA ST,2016,1582.375,30163,10656 S PEORIA ST,41.700418187000025,-87.64506792499998,census
48,Sidewalk Menu,1066 W AINSLIE ST,2017,18748.49,41936,1066 W AINSLIE ST,41.9715498,-87.6569854,google
34,Sidewalk Menu,10700 S EMERALD AVE,2018,12562.83,30249,10700 S EMERALD AVE,41.6992471,-87.6417367,google
10,Sidewalk Menu,10700 S GREEN BAY AVE,2017,12768.17,8236,10700 S GREEN BAY AVE,41.700811886000054,-87.54134872299994,census
10,Sidewalk Menu,10701 S AVENUE M,2022,7906,8500,10701 S AVENUE M,41.70078781900003,-87.53768928699998,census
10,Sidewalk Menu,10718 S MACKINAW AVE,2018,5180.5,8278,10718 S MACKINAW AVE,41.70052817800007,-87.54256777799998,census
10,Sidewalk Menu,10721 S HOXIE AVE,2019,652,8341,10721 S HOXIE AVE,41.70050924700007,-87.56076641499999,census
10,Sidewalk Menu,10726 S AVENUE F,2019,9189,8327,10726 S AVENUE F,41.70034640400007,-87.53045680799994,census
10,Sidewalk Menu,10740 S AVENUE F,2022,2267.96,8501,10740 S AVENUE F,41.70012836500007,-87.53045760899994,census
9,Sidewalk Menu,10744 S EBERHART AVE,2022,6710.71,7317,10744 S EBERHART AVE,41.69906229700007,-87.61110433499994,census
10,Sidewalk Menu,10749 S AVENUE H,2022,1577.48,8502,10749 S AVENUE H,41.70001590100003,-87.53285542999998,census
10,Sidewalk Menu,10751 S AVENUE G,2020,5888.61,8370,10751 S AVENUE G,41.69996025800003,-87.53164739599998,census
10,Sidewalk Menu,10755 S AVENUE F,2016,6462.19,8189,10755 S AVENUE F,41.69991029700003,-87.53044372599999,census
34,Sidewalk Menu,10756 S LOWE AVE,2017,1381.86,30212,10756 S LOWE AVE,41.698449270000026,-87.63893588299999,census
34,Sidewalk Menu,10756 S LOWE AVE,2018,15056.86,30246,10756 S LOWE AVE,41.698449270000026,-87.63893588299999,census
10,Sidewalk Menu,10757 S GREEN BAY AVE,2021,4323.52,8425,10757 S GREEN BAY AVE,41.69993950800006,-87.54133532399999,census
6,Street Light Upgrade Menu,108 E 83RD ST,2019,500,4947,108 E 83RD ST,41.74371695200006,-87.62094337599996,census
2,Street Light Residential Staggered Piggy Back Menu,108 W GERMANIA PL,2019,12052.76,2369,108 W GERMANIA PL,41.91043476800007,-87.63175548299995,census
34,Guardrail Menu,10800 S EGGLESTON AV,2008,800,29673,10800 S EGGLESTON AV,41.69777615000004,-87.63411214499996,census
10,Street Lighting,10800 S HOXIE AVE,2011,3500,7941,10800 S HOXIE AVE,41.699077060000036,-87.56076097499994,census
10,Sidewalk Menu,10800 S TORRENCE AVE,2021,1455.29666666667,8426,10800 S TORRENCE AVE,41.699047472000075,-87.55955447099996,census
9,High Definition Camera,10800 S. Langley,2013,22500,7033,10800 S. Langley,41.6973572,-87.6059593,google
10,Sidewalk Menu,10801 S MACKINAW AVE,2019,12530,8336,10801 S MACKINAW AVE,41.69899462800004,-87.54255334999993,census
10,POD Camera,10801 S. Hoxie,2010,1800,7937,10801 S. Hoxie,41.69907717700005,-87.56074629099999,census
10,Sidewalk Menu,10810 S AVENUE N,2019,4094,8325,10810 S AVENUE N,41.6986874,-87.5392041,google
10,Bollard Menu,10810 S BUFFALO AV,2007,4284,7702,10810 S BUFFALO AV,41.698836190000065,-87.54377802099998,census
10,Sidewalk Menu,10823 S AVENUE O,2021,4808.5,8427,10823 S AVENUE O,41.698646910000036,-87.54007664499994,census
10,Sidewalk Menu,10825 S AVENUE B,2019,9089,8337,10825 S AVENUE B,41.698532956000065,-87.52577145699996,census
10,Sidewalk Menu,10826 S AVENUE N,2017,4044.46,8230,10826 S AVENUE N,41.69856959500004,-87.53770397199997,census
10,Sidewalk Menu,10836 S AVENUE J,2020,6176.42,8372,10836 S AVENUE J,41.698396882000054,-87.53408205299996,census
10,Alley Speed Hump Menu,10836 S EWING AVE,2019,700,8314,10836 S EWING AVE,41.698402464000026,-87.53528801899995,census
10,Sidewalk Menu,10844 S AVENUE J,2021,5577.62,8428,10844 S AVENUE J,41.69827284000007,-87.53408205299996,census
10,Sidewalk Menu,10858 S GREEN BAY AVE,2021,3746.5,8429,10858 S GREEN BAY AVE,41.698091317000035,-87.54135000899998,census
10,Sidewalk Menu,10859 S MACKINAW AVE,2017,20765.91,8227,10859 S MACKINAW AVE,41.698091324000075,-87.54255334999993,census
19,Miscellaneous CDOT Projects,10859 S TALMAN AVE,2022,660,16846,10859 S TALMAN AVE,41.696149268000056,-87.68743556899994,census
10,POD Camera,10900 S. Ave. J,2009,25000,7902,10900 S. Ave. J,41.697144836000064,-87.53408205299996,census
34,Street Light Arterial,10905 S NORMAL,2012,3500,29962,10905 S NORMAL,41.6958589,-87.6349673,google
9,Guardrail Menu,10909 S COTTAGE GROVE AV,2007,1200,6820,10909 S COTTAGE GROVE AV,41.69725615400006,-87.60881839999996,census
10,Sidewalk Menu,10918 S BUFFALO AVE,2021,1355.82,8430,10918 S BUFFALO AVE,41.69690416700007,-87.54378794399997,census
10,Sidewalk Menu,10927 S AVENUE L,2021,12254.54,8431,10927 S AVENUE L,41.696747369000036,-87.53647930099999,census
10,Street Resurfacing Menu,10931 S BUFFALO AVE,2020,4382.495,8387,10931 S BUFFALO AVE,41.69671848000007,-87.54377408699997,census
10,Street Resurfacing Menu,10939 S BUFFALO AVE,2020,4382.495,8387,10939 S BUFFALO AVE,41.69659471400007,-87.54377463799995,census
10,Sidewalk Menu,10946 S EWING AVE,2022,5740.94,8503,10946 S EWING AVE,41.69643520000005,-87.53528801899995,census
19,Street Resurfacing Menu,10954 S FAIRFIELD AVE,2021,1699.845,16823,10954 S FAIRFIELD AVE,41.69436391900007,-87.68985619599994,census
5,Sidewalk Menu,1100 E MIDWAY PLAISANCE,2016,17712.505,4323,1100 E MIDWAY PLAISANCE,41.7871844,-87.5992537,google
37,Street Speed Hump Menu,1100 N KEDVALE AVE,2018,1850,32919,1100 N KEDVALE AVE,41.90093181900005,-87.72995028299994,census
37,Street Lighting,1100 N LATROBE AV,2006,2200,32399,1100 N LATROBE AV,41.900553881000064,-87.75697357199994,census
29,Curb & Gutter Menu,1100 N MAYFIELD AVE,2019,6244.77,25383,1100 N MAYFIELD AVE,41.900360299000056,-87.77288828499996,census
27,2 POD CAMERAS: 1100 N MONTICELLO AVE & 1200 N MONTICELLO AVE,1100 N MONTICELLO AVE,2019,24776,23863,1100 N MONTICELLO AVE,41.90102245700007,-87.71772593299994,census
29,Sidewalk Menu,1100 N PARKSIDE AVE,2018,27556.12,25333,1100 N PARKSIDE AVE,41.90041594300004,-87.76680913399997,census
27,POD Camera: 1100 N. Ridgeway Ave,1100 N RIDGEWAY AVE,2019,24776,23867,1100 N RIDGEWAY AVE,41.90101012900004,-87.72016506199998,census
2,1 PTZ Camera - NW 1100 N State,1100 N STATE ST,2022,24776,2456,1100 N STATE ST,41.9020886,-87.6285677,google
49,Street Speed Hump Menu,1100 W ALBION AVE,2016,1850,42762,1100 W ALBION AVE,42.00258235300004,-87.65907244499994,census
48,Street Lighting,1100 W BERWYN AV,2009,800,41625,1100 W BERWYN AV,41.97817,-87.6578791,google
43,In-Road State Law Stop For Pedestrians Sign Menu,1100 W FULLERTON AVE,2022,175,38086,1100 W FULLERTON AVE,41.9256224,-87.6562694,google
43,Sidewalk Menu,1100 W WEBSTER AVE,2020,45855.65,38022,1100 W WEBSTER AVE,41.921704917000056,-87.65601043999999,census
44,Street Light Upgrade Menu,1100 W WOLFRAM ST,2017,500,38729,1100 W WOLFRAM ST,41.93350971600006,-87.65645908499994,census
25,POD Camera,1100 W. 18 th St.,2009,16738,21680,1100 W. 18 th St.,41.858003377000045,-87.65341231199994,census
25,POD Camera,1100 W. 18 th St.,2010,8262,21821,1100 W. 18 th St.,41.858003377000045,-87.65341231199994,census
5,Sidewalk Menu,1101 E MIDWAY PLAISANCE,2016,17712.505,4323,1101 E MIDWAY PLAISANCE,41.7871844,-87.5992537,google
37,Miscellaneous CDOT Projects,1101 N LONG AVE,2019,6000,32955,1101 N LONG AVE,41.9005016,-87.7605153,google
29,Curb & Gutter Menu,1101 N MAYFIELD AVE,2019,5163.43666666667,25384,1101 N MAYFIELD AVE,41.867214501000035,-87.77172349599994,census
24,Sidewalk Menu,1101 S KEELER AVE,2021,17633.09,21247,1101 S KEELER AVE,41.86789044100004,-87.73011645899999,census
28,Sidewalk Menu,1101 S RICHMOND ST,2021,2095.88,24765,1101 S RICHMOND ST,41.86819273200007,-87.69960804099998,census
49,Sidewalk Menu,1101 W NORTH SHORE AVE,2021,2312.33,42972,1101 W NORTH SHORE AVE,42.003709196000045,-87.65877516499995,census
27,Sidewalk Menu,1103 N RIDGEWAY AVE,2021,3214.67,23922,1103 N RIDGEWAY AVE,41.901033950000055,-87.72015085799995,census
9,Sidewalk Menu,11036 S INDIANA AVE,2022,11533.455,7318,11036 S INDIANA AVE,41.69394745400007,-87.61828235899998,census
19,Miscellaneous-CDOT,11039 S Christiana,2010,15369,16462,11039 S Christiana,41.6923038,-87.7043086,google
34,Sidewalk Menu,1104 W 104TH PL,2016,2346.18,30165,1104 W 104TH PL,41.70412154300004,-87.65031678399998,census
34,Sidewalk Menu,1104 W 104TH PL,2017,3198.36,30211,1104 W 104TH PL,41.70412154300004,-87.65031678399998,census
34,Sidewalk Menu,1104 W 104TH PL,2018,8739.36,30244,1104 W 104TH PL,41.70412154300004,-87.65031678399998,census
34,Sidewalk Menu,1104 W 104TH PL,2018,28335.22,30245,1104 W 104TH PL,41.70412154300004,-87.65031678399998,census
34,Guardrail Menu,11043 S VINCENNES AV,2006,460,29529,11043 S VINCENNES AV,41.69267,-87.662704,google
34,Bollard Menu,11044 S PRINCETON AV,2006,1428,29522,11044 S PRINCETON AV,41.69320410600005,-87.63032981199996,census
10,Sidewalk Menu,11045 S AVENUE L,2022,4461.82,8504,11045 S AVENUE L,41.69464909000004,-87.53647930099999,census
10,Sidewalk Menu,11048 S AVENUE N,2019,14798,8330,11048 S AVENUE N,41.6940816,-87.5391798,google
29,Miscellaneous CDOT Projects,1105 N MASSASOIT AVE,2021,150,25470,1105 N MASSASOIT AVE,41.90047929100007,-87.76922965499995,census
1,Sidewalk Menu,1107 N HERMITAGE AVE,2016,443.94,690,1107 N HERMITAGE AVE,41.9024648,-87.6708901,google
29,Miscellaneous CDOT Projects,1107 N MASSASOIT AVE,2021,150,25471,1107 N MASSASOIT AVE,41.90051050900007,-87.76923069499998,census
26,Alley Apron Menu,1107 N SACRAMENTO AVE,2018,20904.63,22904,1107 N SACRAMENTO AVE,41.9013158,-87.7015,google
25,Sidewalk Menu,1108 W MADISON ST,2016,4971.26,22040,1108 W MADISON ST,41.8818314,-87.6549045,google
26,Sidewalk Menu,1109 N SACRAMENTO AVE,2016,3204.76,22814,1109 N SACRAMENTO AVE,41.9014002,-87.7014803,google
16,Curb & Gutter Menu,1109 W GARFIELD BLVD,2022,32341.79,14659,1109 W GARFIELD BLVD,41.79382133800004,-87.65282334799997,census
26,Alley Resurfacing Menu,1110 N MOZART ST,2022,22461.11,23133,1110 N MOZART ST,41.90131857400007,-87.69809433799998,census
34,Miscellaneous-CDOT,11100 S Halstead St.,2010,20598,29809,11100 S Halstead St.,41.69230850200006,-87.64238074099995,census
9,Sidewalk Menu,11100 S LANGLEY AVE,2019,41729.71,7224,11100 S LANGLEY AVE,41.692809,-87.6060003,google
9,Sidewalk Menu,11100 S LANGLEY AVE,2019,6166.59,7225,11100 S LANGLEY AVE,41.692809,-87.6060003,google
1,Sidewalk Menu,1111 N PAULINA ST,2022,3172.43,1007,1111 N PAULINA ST,41.9026288,-87.6697653,google
4,Street Bump Outs Menu,1111 S WABASH AVE,2021,6190.7,3788,1111 S WABASH AVE,41.868424051000034,-87.62583849199996,census
4,Sidewalk Menu,1112 S WABASH AVE,2016,6539.65,3617,1112 S WABASH AVE,41.86908120100003,-87.62587373399998,census
25,Alley Resurfacing Menu,1112 W CULLERTON ST,2018,23494.04,22103,1112 W CULLERTON ST,41.85524197400008,-87.65393242199997,census
25,Sidewalk Menu,1112 W TAYLOR ST,2022,13593.6,22284,1112 W TAYLOR ST,41.86945551900004,-87.65481406299995,census
25,Alley Resurfacing Menu,1112 W TAYLOR ST,2021,6155.3,22222,1112 W TAYLOR ST,41.86945551900004,-87.65481406299995,census
1,Sidewalk Menu,1113 N HERMITAGE AVE,2016,443.94,690,1113 N HERMITAGE AVE,41.9026682,-87.6708806,google
34,Street Light Upgrade Menu,11132 S ASHLAND AVE,2017,500,30222,11132 S ASHLAND AVE,41.7202573,-87.6626689,google
10,Sidewalk Menu,11137 S EWING AVE,2018,3076,8273,11137 S EWING AVE,41.692759300000034,-87.53527333499994,census
44,Alley Apron Menu,1114 W ROSCOE ST,2016,9738.07,38634,1114 W ROSCOE ST,41.9436982,-87.6573616,google
34,Street Light Upgrade Menu,11142 S ASHLAND AVE,2017,500,30222,11142 S ASHLAND AVE,41.7202573,-87.6626689,google
26,Sidewalk Menu,1115 N FRANCISCO AVE,2022,1759.97,23178,1115 N FRANCISCO AVE,41.86745214000007,-87.69836090999996,census
43,Alley Apron Menu,1115 W BELDEN AVE,2016,3180.12,37783,1115 W BELDEN AVE,41.92350180600005,-87.65670265199998,census
43,Alley Apron Menu,1115 W BELDEN AVE,2017,7736.8,37869,1115 W BELDEN AVE,41.92350180600005,-87.65670265199998,census
43,Street Light Upgrade Menu,1115 W DIVERSEY PKWY,2016,450,37857,1115 W DIVERSEY PKWY,41.932376,-87.6565005,google
44,Sidewalk Menu,1119 W GRACE ST,2018,3031.42,38761,1119 W GRACE ST,41.9510711,-87.657645,google
34,Sidewalk Menu,11201 S GREEN ST,2021,28286.69,30350,11201 S GREEN ST,41.69037982700007,-87.64352410099997,census
37,Sidewalk Menu,1121 N KEYSTONE AVE,2019,36505.63,32959,1121 N KEYSTONE AVE,41.901288812000075,-87.72747903199996,census
27,Street Light Upgrade Menu,1122 N LAWNDALE AVE,2019,500,23875,1122 N LAWNDALE AVE,41.9016599,-87.7192137,google
26,Sidewalk Menu,1123 N SACRAMENTO AVE,2021,5689.13,23112,1123 N SACRAMENTO AVE,41.90177774000006,-87.70177873599994,census
48,Sidewalk Menu,1123 W THORNDALE AVE,2017,479.26,41937,1123 W THORNDALE AVE,41.99003245500006,-87.65921531999999,census
44,Sidewalk Menu,1123 W WELLINGTON AVE,2016,2563.73,38657,1123 W WELLINGTON AVE,41.93621560100007,-87.65736855099999,census
37,Alley Speed Hump Menu,1124 N PULASKI RD,2022,700,33071,1124 N PULASKI RD,41.901581011000076,-87.72627442399994,census
2,Street Lighting,1124 S ASHLAND AV,2009,1000,1632,1124 S ASHLAND AV,41.8676973,-87.6666729,google
44,Miscellaneous CDOT Projects,1124 W BARRY AVE,2019,582.5,38786,1124 W BARRY AVE,41.93804780500005,-87.65742643699997,census
44,Miscellaneous CDOT Projects,1125 W WELLINGTON AVE,2019,500,38791,1125 W WELLINGTON AVE,41.93621540100003,-87.65744691099997,census
10,Curb & Gutter Menu,11256 S AVENUE H,2022,23614.28,8488,11256 S AVENUE H,41.69061540700005,-87.53287206599998,census
44,Alley Resurfacing Menu (1-1),1128 W NEWPORT AVE,2018,23116.295,38743,1128 W NEWPORT AVE,41.94442896400005,-87.65798715599999,census
49,Sidewalk Menu,1130 W NORTH SHORE AVE,2018,1321.85,42872,1130 W NORTH SHORE AVE,42.00370650900004,-87.65969820199996,census
9,POD Camera,11300 E. Edbrooke,2010,20000,6955,11300 E. Edbrooke,41.6889104,-87.6196766,google
26,Sidewalk Menu,1131 N FRANCISCO AVE,2021,2847.95,23113,1131 N FRANCISCO AVE,41.867371099000025,-87.69835865899995,census
27,Alley Speed Hump Menu,1131 N RIDGEWAY AVE,2017,350,23792,1131 N RIDGEWAY AVE,41.90136494500007,-87.72015985199994,census
44,Miscellaneous CDOT Projects,1133 W CORNELIA AVE,2019,582.5,38786,1133 W CORNELIA AVE,41.9451734,-87.6583064,google
43,Miscellaneous CDOT Projects,1135 W BELDEN AVE,2018,1000,37943,1135 W BELDEN AVE,41.92349946100006,-87.65680816599996,census
34,Bollard Menu,11352 S BISHOP ST,2006,714,29521,11352 S BISHOP ST,41.686805166000056,-87.65843227399995,census
9,Street Light Upgrade Menu,11361 S INDIANA AVE,2017,406,7148,11361 S INDIANA AVE,41.687281,-87.617737,google
16,Miscellaneous CDOT Projects,1137 W 63RD ST,2022,101,14661,1137 W 63RD ST,41.779616807000025,-87.65376383999995,census
44,Miscellaneous CDOT Projects,1139 W WELLINGTON AVE,2019,500,38791,1139 W WELLINGTON AVE,41.93620670800004,-87.65792119199995,census
17,Alley Resurfacing Menu,1140 W 79TH ST,2017,15039.59,15179,1140 W 79TH ST,41.75051550300003,-87.65277559699996,census
21,Sidewalk Menu,1140 W 90TH ST,2022,4301.87,18468,1140 W 90TH ST,41.730482634000055,-87.65238009399997,census
34,Curb & Gutter Menu,11400 S WALLACE ST,2016,9404.71,30152,11400 S WALLACE ST,41.68685456800006,-87.63737222899994,census
9,Street Light Upgrade Menu,11404 S INDIANA AVE,2017,406,7148,11404 S INDIANA AVE,41.686648743000035,-87.61810037599997,census
44,Alley Apron Menu,1141 W WOLFRAM ST,2016,7564.47,38640,1141 W WOLFRAM ST,41.93347698800005,-87.65782784999999,census
37,Sidewalk Menu,1142 N KARLOV AVE,2022,2988.17,33088,1142 N KARLOV AVE,41.86684562500005,-87.72764768799999,census
44,Alley Apron Menu,1142 W GEORGE ST,2022,41172.68,38886,1142 W GEORGE ST,41.934409079000034,-87.65715731799997,census
49,Alley Speed Hump Menu,1142 W NORTH SHORE AVE,2016,700,42719,1142 W NORTH SHORE AVE,42.00370361100005,-87.65989407699999,census
34,Curb & Gutter Menu,11421 S ASHLAND AVE,2016,2859.06,30155,11421 S ASHLAND AVE,41.720848,-87.6626996,google
9,Curb & Gutter Menu,11424 S CHAMPLAIN AVE,2020,29206.28,7252,11424 S CHAMPLAIN AVE,41.68695504100003,-87.60709436799993,census
21,Miscellaneous-BOE,1143 W 91 ST,2007,1000,17680,1143 W 91 ST,41.7286537,-87.6521253,google
34,Curb & Gutter Menu,11430 S PARNELL AVE,2019,4427.09,30281,11430 S PARNELL AVE,41.68612410500003,-87.63614127499994,census
37,Alley Apron Menu,1144 N LONG AVE,2017,27925.31,32825,1144 N LONG AVE,41.901492123000025,-87.76087881999996,census
44,Alley Apron Menu,1145 W OAKDALE AVE,2022,18813.92,38887,1145 W OAKDALE AVE,41.93529995700004,-87.65721577599999,census
44,Alley Apron Menu,1145 W WELLINGTON AVE,2016,1374.87,38639,1145 W WELLINGTON AVE,41.93620458700008,-87.65810993199995,census
44,Alley Apron Menu,1145 W WELLINGTON AVE,2017,10796.92,38679,1145 W WELLINGTON AVE,41.93620458700008,-87.65810993199995,census
37,Concrete Alley Menu,1146 N LECLAIRE AVE,2022,57934.295,33084,1146 N LECLAIRE AVE,41.90112828100007,-87.75330173399999,census
1,Clemente High School - Field Restoration,1147 N WESTERN AVE,2018,70100,778,1147 N WESTERN AVE,41.90216239600005,-87.68699753499999,census
44,Curb & Gutter Menu,1147 W GEORGE ST,2016,2361.3,38646,1147 W GEORGE ST,41.93438233200004,-87.65820611099997,census
44,Curb & Gutter Menu,1147 W GEORGE ST,2016,7714.53,38650,1147 W GEORGE ST,41.93438233200004,-87.65820611099997,census
49,Sidewalk Menu,1147 W PRATT BLVD,2016,8036.46,42729,1147 W PRATT BLVD,42.005546398000035,-87.66028221199997,census
1,School Projects,1148 N HONORE ST,2014,25000,594,1148 N HONORE ST,41.90250513900003,-87.67358018499993,census
1,LaSalle II School Playground Drinking Fountain,1148 N HONORE ST,2017,9300,748,1148 N HONORE ST,41.90250513900003,-87.67358018499993,census
44,Curb & Gutter Menu,1149 W CORNELIA AVE,2017,3993.18,38711,1149 W CORNELIA AVE,41.945317438000075,-87.65870570699997,census
28,Alley Apron Menu,115 N KILBOURN AVE,2020,28771.06,24737,115 N KILBOURN AVE,41.8824124,-87.7377261,google
43,Miscellaneous CDOT Projects,1150 W DICKENS AVE,2018,616.190476190476,37944,1150 W DICKENS AVE,41.91986434900008,-87.65772264199995,census
48,Miscellaneous-CDOT,1150 W Foster (Bus Pad),2008,14471,41561,1150 W Foster,41.97634646800003,-87.65873879199995,census
10,Bollard Menu,11500 S AVENUE L,2010,7570,7904,11500 S AVENUE L,41.68623284800003,-87.53647923199998,census
27,Sidewalk Menu,1151 S WOOD ST,2021,12499.62,23923,1151 S WOOD ST,41.867457,-87.6707839,google
44,Miscellaneous Other Projects,1151 W EDDY ST,2019,1246.66666666667,38790,1151 W EDDY ST,41.94624474600005,-87.65765870499996,census
34,Sidewalk Menu,11520 S MARSHFIELD AVE,2016,1052.335,30161,11520 S MARSHFIELD AVE,41.68424012600008,-87.66269961699999,census
34,Alley Resurfacing Menu,11528 S HALSTED ST,2018,9246.52,30239,11528 S HALSTED ST,41.68455074500008,-87.64213897499997,census
43,Miscellaneous CDOT Projects,1154 W DICKENS AVE,2018,616.190476190476,37944,1154 W DICKENS AVE,41.91986341100005,-87.65776484699995,census
44,Sidewalk Menu,1154 W DIVERSEY PKWY,2015,678,38603,1154 W DIVERSEY PKWY,41.93257870000008,-87.65780788999996,census
10,Rowan Park- park improvements,11546 S AVENUE L,2016,75000,8178,11546 S AVENUE L,41.685524454000074,-87.53647605899994,census
10,Rowan Park - Baseball Field Improvements,11546 S AVENUE L,2018,160000,8268,11546 S AVENUE L,41.685524454000074,-87.53647605899994,census
44,Alley Apron Menu,1155 W EDDY ST,2021,10660.12,38837,1155 W EDDY ST,41.94624364300006,-87.65771810699994,census
43,Miscellaneous CDOT Projects,1158 W DICKENS AVE,2018,616.190476190476,37944,1158 W DICKENS AVE,41.91986247400007,-87.65780705299994,census
24,Sidewalk Menu,1159 S KEELER AVE,2021,46955.14,21248,1159 S KEELER AVE,41.86662059100007,-87.73007518799994,census
29,Curb & Gutter Menu,116 S CENTRAL AVE,2020,65259.49,25427,116 S CENTRAL AVE,41.87832341400008,-87.76479860099994,census
34,Alley Apron Menu,11600 S LAFLIN ST,2017,25272.6,30200,11600 S LAFLIN ST,41.682890833000044,-87.65911981999994,census
34,Sidewalk Menu,11616 S ABERDEEN ST,2017,13171.57,30210,11616 S ABERDEEN ST,41.6826236,-87.6496925,google
4,POD Camera,1163 E 43RD ST,2017,27011,3663,1163 E 43RD ST,41.81691720400005,-87.59744528099998,census
42,Bollard Menu,1164 N DEARBORN ST,2005,2856,36212,1164 N DEARBORN ST,41.90345753200006,-87.62997631799999,census
44,Alley Apron Menu,1169 W EDDY ST,2015,6653,38554,1169 W EDDY ST,41.946239784000056,-87.65792601599998,census
34,Bollard Menu,11717 S PRINCETON AV,2008,1428,29670,11717 S PRINCETON AV,41.680935145000035,-87.62994361499995,census
10,Street Light Upgrade Menu,11741 S TORRENCE AVE,2018,720,8294,11741 S TORRENCE AVE,41.68238071300004,-87.55933941099994,census
10,Alley Speed Hump Menu,11743 S EWING AVE,2015,700,8139,11743 S EWING AVE,41.68195998300007,-87.53522992299997,census
34,Alley Apron Menu,11759 S JUSTINE ST,2021,33956.65,30340,11759 S JUSTINE ST,41.68015068400007,-87.66023947299999,census
34,Bollard Menu,11844 S WENTWORTH AV,2007,1428,29607,11844 S WENTWORTH AV,41.67892223700005,-87.62749940699996,census
34,Sidewalk Menu,11855 S MARSHFIELD AVE,2016,2560.015,30162,11855 S MARSHFIELD AVE,41.6784092,-87.6624996,google
9,Sidewalk Menu,119 E 95TH ST,2020,26715.19,7257,119 E 95TH ST,41.7215976,-87.6196291,google
29,Curb & Gutter Menu,119 S MAYFIELD AVE,2022,10348.62,25560,119 S MAYFIELD AVE,41.87846254300007,-87.77132111199995,census
34,Street Light Upgrade Menu,11900 S LOOMIS ST,2018,2000,30253,11900 S LOOMIS ST,41.6776067,-87.6565566,google
34,Sidewalk Menu,11921 S STEWART AVE,2020,7554.29,30319,11921 S STEWART AVE,41.677156352000054,-87.63223988099998,census
9,Curb & Gutter Menu,11943 S STATE ST,2018,7477.93,7177,11943 S STATE ST,41.676899682000055,-87.62261666499995,census
42,Pavement Markings,120 S DESPLAINES ST,2015,1700,36809,120 S DESPLAINES ST,41.879948916000046,-87.64407184799995,census
37,Alley Resurfacing Menu,1200 N HARDING AVE,2017,20070.625,32827,1200 N HARDING AVE,41.86562239300008,-87.72393871899999,census
29,Sidewalk Menu,1200 N MENARD AVE,2021,3458.68,25475,1200 N MENARD AVE,41.902575574000025,-87.77053168699996,census
27,2 POD CAMERAS: 1100 N MONTICELLO AVE & 1200 N MONTICELLO AVE,1200 N MONTICELLO AVE,2019,24776,23863,1200 N MONTICELLO AVE,41.90338342600006,-87.71780620199996,census
27,POD Camera,1200 N Springfield,2008,24000,23420,1200 N Springfield,41.902702,-87.723866,google
24,Street Speed Hump Menu,1200 S CHRISTIANA AVE,2018,1850,21151,1200 S CHRISTIANA AVE,41.8661138,-87.7095039,google
24,Street Resurfacing Menu,1200 S SPRINGFIELD AVE,2017,47783.26,21107,1200 S SPRINGFIELD AVE,41.8662017,-87.7227334,google
24,Street Speed Hump Menu,1200 S TROY ST,2021,4700,21261,1200 S TROY ST,41.8659965,-87.7045721,google
24,POD Camera,1200 S. Springfield,2006,24000,20730,1200 S. Springfield,41.8662017,-87.7227334,google
17,Street Resurfacing Menu,1200 W 74TH PL,2019,62302.66,15294,1200 W 74TH PL,41.7586807,-87.6539578,google
46,Curb & Gutter Menu,1200 W AINSLIE ST,2021,2077.035,40231,1200 W AINSLIE ST,41.9714678,-87.6597351,google
43,Street Resurfacing Menu,1200 W BELDEN AVE,2021,34512.62,38056,1200 W BELDEN AVE,41.92348251200008,-87.65844246799998,census
37,POD Camera,1201 N Central,2007,36000,32478,1201 N Central,41.9024186,-87.7654362,google
28,Sidewalk Menu,1201 W FLOURNOY ST,2017,85249.46,24623,1201 W FLOURNOY ST,41.873230532000036,-87.65694599099999,census
48,Bollard Menu,1201 W HOOD AV,2006,3570,41469,1201 W HOOD AV,41.99361359900007,-87.66119709299994,census
34,Curb & Gutter Menu,12029 S JUSTINE ST,2016,6455.23,30156,12029 S JUSTINE ST,41.674980548000065,-87.66008002899997,census
21,Sidewalk Menu,1205 W 86TH ST,2022,10071.24,18469,1205 W 86TH ST,41.73774703500004,-87.65353934699993,census
48,Sidewalk Menu,1205 W THORNDALE AVE,2022,2676.24,42235,1205 W THORNDALE AVE,41.98997166100003,-87.66164408299994,census
34,Sidewalk Menu,12053 S LAFLIN ST,2017,6203.62,30207,12053 S LAFLIN ST,41.6741687,-87.658567,google
48,Curb & Gutter Menu,1206 W BALMORAL AVE,2021,7489.46,42168,1206 W BALMORAL AVE,41.9799743,-87.6604081,google
48,Sidewalk Menu,1207 W BRYN MAWR AVE,2021,8615.18,42174,1207 W BRYN MAWR AVE,41.9835225,-87.6606887,google
43,Curb & Gutter Menu,1209 W DRAPER ST,2021,22360.47,38036,1209 W DRAPER ST,41.928234012000075,-87.65892410399994,census
5,Miscellaneous-Other,121 N LA SALLE ST,2011,647,4197,121 N LA SALLE ST,41.8838075,-87.6322093,google
6,Miscellaneous-Other,121 N LA SALLE ST,2011,3076,4795,121 N LA SALLE ST,41.8838075,-87.6322093,google
7,Miscellaneous-Other,121 N LA SALLE ST,2011,459,5412,121 N LA SALLE ST,41.8838075,-87.6322093,google
8,Miscellaneous-Other,121 N LA SALLE ST,2011,220,6169,121 N LA SALLE ST,41.8838075,-87.6322093,google
14,Miscellaneous-Other,121 N LA SALLE ST,2011,337,12304,121 N LA SALLE ST,41.8838075,-87.6322093,google
15,Miscellaneous-Other,121 N LA SALLE ST,2011,1044,13370,121 N LA SALLE ST,41.8838075,-87.6322093,google
19,Miscellaneous-Other,121 N LA SALLE ST,2011,888,16532,121 N LA SALLE ST,41.8838075,-87.6322093,google
21,Miscellaneous-Other,121 N LA SALLE ST,2011,108,17909,121 N LA SALLE ST,41.8838075,-87.6322093,google
24,Miscellaneous-Other,121 N LA SALLE ST,2011,449,20894,121 N LA SALLE ST,41.8838075,-87.6322093,google
28,Miscellaneous-Other,121 N LA SALLE ST,2011,414,24313,121 N LA SALLE ST,41.8838075,-87.6322093,google
32,Miscellaneous-Other,121 N LA SALLE ST,2011,161,28193,121 N LA SALLE ST,41.8838075,-87.6322093,google
35,Miscellaneous-Other,121 N LA SALLE ST,2011,177,30805,121 N LA SALLE ST,41.8838075,-87.6322093,google
37,Miscellaneous-Other,121 N LA SALLE ST,2011,314,32634,121 N LA SALLE ST,41.8838075,-87.6322093,google
39,Miscellaneous-Other,121 N LA SALLE ST,2011,175,34283,121 N LA SALLE ST,41.8838075,-87.6322093,google
42,Pole Painting,121 N LA SALLE ST,2006,7500,36355,121 N LA SALLE ST,41.8838075,-87.6322093,google
46,Miscellaneous-Other,121 N LA SALLE ST,2011,158,39935,121 N LA SALLE ST,41.8838075,-87.6322093,google
49,Miscellaneous-Other,121 N LA SALLE ST,2011,450,42511,121 N LA SALLE ST,41.8838075,-87.6322093,google
28,Street Light Upgrade Menu,121 S WHIPPLE ST,2018,401.4775,24663,121 S WHIPPLE ST,41.878716342000075,-87.70237936399997,census
26,POD CAMERA - N Humbold Dr/Munoz Marine/Division,1210 N HUMBOLDT DR,2019,24776,22985,1210 N HUMBOLDT DR,41.90297641800004,-87.70225055099996,census
11,Bollard Menu,1210 W 31 PL,2006,714,8576,1210 W 31 PL,41.8372489,-87.6564849,google
34,Alley Resurfacing Menu,12100 S RACINE AVE,2022,10712.94,30392,12100 S RACINE AVE,41.6738289,-87.6517997,google
34,Street Resurfacing Menu,12105 S THROOP ST,2016,1735.19,30193,12105 S THROOP ST,41.673711,-87.653693,google
34,Alley Apron Menu,12105 S THROOP ST,2017,18986.73,30199,12105 S THROOP ST,41.673711,-87.653693,google
48,Alley Apron Menu,1211 W GRANVILLE AVE,2016,8606.18,41830,1211 W GRANVILLE AVE,41.9945564,-87.661091,google
48,Alley Apron Menu,1211 W GRANVILLE AVE,2016,3048,41833,1211 W GRANVILLE AVE,41.9945564,-87.661091,google
49,Alley Resurfacing Menu,1211 W MORSE AVE,2020,13337.79,42936,1211 W MORSE AVE,42.00796170800004,-87.66250789399999,census
29,Bollard Menu,1212 N MENARD AVE,2021,6201.49,25464,1212 N MENARD AVE,41.902721944000064,-87.77053664899995,census
1,Alley Apron Menu,1212 W ERIE ST,2018,8963.35,782,1212 W ERIE ST,41.89346764600003,-87.65974414099998,census
34,Sidewalk Menu,12132 S WALLACE ST,2021,13728.41,30351,12132 S WALLACE ST,41.6732187,-87.6371866,google
11,Bollard Menu,1214 W 32 ST,2006,714,8577,1214 W 32 ST,41.836096429000065,-87.65676712999993,census
9,Sidewalk Menu,12143 S MICHIGAN AVE,2022,6981.88,7319,12143 S MICHIGAN AVE,41.6731833,-87.6200901,google
26,Alley Resurfacing Menu,1215 N ARTESIAN AVE,2020,11628.79,23018,1215 N ARTESIAN AVE,41.9035238,-87.6878983,google
26,Alley Resurfacing Menu,1215 N MONTICELLO AVE,2020,18144.335,23020,1215 N MONTICELLO AVE,41.9033005,-87.7175118,google
48,Alley Apron Menu,1215 W ROSEDALE AVE,2016,10107.75,41829,1215 W ROSEDALE AVE,41.989050389000056,-87.66111824499995,census
49,Sidewalk Menu,1215 W SHERWIN AVE,2018,4132.19,42876,1215 W SHERWIN AVE,42.01504122700004,-87.66330127499998,census
26,Sidewalk Menu,1216 N CAMPBELL AVE,2016,1800.96,22819,1216 N CAMPBELL AVE,41.9036094,-87.689797,google
21,Sidewalk Menu,1216 W 91ST ST,2021,13177.78,18398,1216 W 91ST ST,41.7287784,-87.6538744,google
21,Sidewalk Menu,1216 W 97TH ST,2020,7681.66,18365,1216 W 97TH ST,41.71887962900007,-87.59402709399996,census
48,Alley Apron Menu,1217 W CATALPA AVE,2017,11968.23,41872,1217 W CATALPA AVE,41.98178371900008,-87.66074079999999,census
48,Curb & Gutter Menu,1217 W HOOD AVE,2019,18379.6,42050,1217 W HOOD AVE,41.99360879300008,-87.66159357499998,census
26,Alley Resurfacing Menu,1218 N HAMLIN AVE,2022,16756.89,23134,1218 N HAMLIN AVE,41.90344565400005,-87.72145923499994,census
1,Curb & Gutter Menu,1219 N WOLCOTT AVE,2021,3527.32,954,1219 N WOLCOTT AVE,41.9039163,-87.6745404,google
1,Sidewalk Menu,1220 N DAMEN AVE,2019,1430.77,872,1220 N DAMEN AVE,41.9039275,-87.6775503,google
1,Alley Resurfacing Menu,1220 N PAULINA ST,2022,17714.8,985,1220 N PAULINA ST,41.90420420800007,-87.67046190499997,census
27,Viaduct Improvement Menu,1220 W AUGUSTA BLVD,2021,103481.65,23945,1220 W AUGUSTA BLVD,41.900045,-87.6575678,google
9,Sidewalk Menu,12200 S LA SALLE ST,2019,15809.2,7226,12200 S LA SALLE ST,41.672374482000066,-87.62610447299994,census
9,Sidewalk Menu,12200 S LA SALLE ST,2020,36681.52,7253,12200 S LA SALLE ST,41.672374482000066,-87.62610447299994,census
11,Alley Resurfacing Menu,1222 W 31ST PL,2018,12099.44,9106,1222 W 31ST PL,41.837000199000045,-87.65692850699998,census
49,Sam Leone Park Parking Lot,1222 W TOUHY AVE,2022,100000,43037,1222 W TOUHY AVE,42.01285196300006,-87.66257930399996,census
9,Sidewalk Menu,12239 S MICHIGAN AVE,2022,5442.38,7320,12239 S MICHIGAN AVE,41.6714396,-87.6199764,google
48,Curb & Gutter Menu,1224 W BERWYN AVE,2022,1823.69,42222,1224 W BERWYN AVE,41.9782775,-87.6610543,google
9,Sidewalk Menu,12245 S MICHIGAN AVE,2022,6846.3,7321,12245 S MICHIGAN AVE,41.671237,-87.6200489,google
44,Street Light Upgrade Menu,1225 W ADDISON ST,2017,1200,38731,1225 W ADDISON ST,41.9469018,-87.66025,google
48,Curb & Gutter Menu,1225 W GRANVILLE AVE,2017,11270.68,41898,1225 W GRANVILLE AVE,41.994534325000075,-87.66178362299996,census
44,Alley Resurfacing Menu,1225 W MELROSE ST,2018,21038.36,38744,1225 W MELROSE ST,41.94071556200004,-87.66001313499999,census
46,Bezazian Library Mural Restoration,1226 W AINSLIE ST,2016,2000,40087,1226 W AINSLIE ST,41.9716997,-87.6606925,google
10,Street Speed Hump Menu,12260 S CARONDOLET AVE,2022,4700,8527,12260 S CARONDOLET AVE,41.66894427200003,-87.54957604499998,census
21,Sidewalk Menu,1227 W 97TH ST,2021,4764.45,18399,1227 W 97TH ST,41.71865024900006,-87.59350890799999,census
24,Curb & Gutter Menu,1228 S SPAULDING AVE,2019,4142.35,21169,1228 S SPAULDING AVE,41.90433118100003,-87.70928605099994,census
44,Sidewalk Menu,1230 W GRACE ST,2017,5437.56,38720,1230 W GRACE ST,41.9512697,-87.6605598,google
49,Loyola/Leone Beach Footwash Station and Mister/Sprayer,1230 W GREENLEAF AVE,2021,35000,42965,1230 W GREENLEAF AVE,42.01040998700006,-87.66195466999994,census
49,Chicago Park District - Dubkin Park; Paschen Park; Loyola Park,1230 W GREENLEAF AVE,2016,11666.6666666667,42724,1230 W GREENLEAF AVE,42.01040998700006,-87.66195466999994,census
29,Sidewalk Menu,1231 N AUSTIN BLVD,2021,3676.55,25476,1231 N AUSTIN BLVD,41.9030004,-87.7750995,google
9,Alley Resurfacing Menu,12329 S STATE ST,2017,8813.49,7137,12329 S STATE ST,41.6699187,-87.6220872,google
37,Street Light Upgrade Menu,1233 N PULASKI RD,2021,500,33020,1233 N PULASKI RD,41.90367594600008,-87.72632060799998,census
44,Concrete Alley Menu,1233 W MELROSE ST,2020,5000,38816,1233 W MELROSE ST,41.940711745000044,-87.66029046999995,census
37,Curb & Gutter Menu,1234 N LAMON AVE,2019,5459.45,32951,1234 N LAMON AVE,41.9034385,-87.7486127,google
26,Sidewalk Menu,1234 N MONTICELLO AVE,2021,30481.13,23114,1234 N MONTICELLO AVE,41.90376136000003,-87.71781816199996,census
32,Street Lighting,1234 W GEORGE ST,2006,3000,27861,1234 W GEORGE ST,41.93435997800003,-87.66018980599995,census
16,Guardrail Menu,1235 W 59 ST,2007,900,13970,1235 W 59 ST,41.7866736,-87.6561478,google
2,Sidewalk Menu,1236 N DEARBORN ST,2017,1272.98,2296,1236 N DEARBORN ST,41.9050304,-87.6304938,google
21,Sidewalk Menu,1236 W 98TH ST,2022,3203.88,18470,1236 W 98TH ST,41.716768553000065,-87.59297241499996,census
44,Street Lighting,1236 W ROSCOE ST,2011,350,38285,1236 W ROSCOE ST,41.943481845000065,-87.66058484099995,census
44,Miscellaneous CDOT Projects,1239 W MELROSE ST,2019,582.5,38786,1239 W MELROSE ST,41.940709027000025,-87.66049850099995,census
44,Alley Apron Menu,1239 W WAVELAND AVE,2017,13542.68,38700,1239 W WAVELAND AVE,41.94893727400006,-87.66076929499997,census
47,Sidewalk Menu,1239 W WINONA ST,2016,319.45,41013,1239 W WINONA ST,41.975397961000056,-87.66158317699995,census
27,Curb & Gutter Menu,124 N SANGAMON ST,2016,29573.57,23741,124 N SANGAMON ST,41.88345366800007,-87.65091726499998,census
24,Street Light Upgrade,1240 S ST LOUIS AVE,2012,350,20932,1240 S ST LOUIS AVE,41.8650051,-87.7132175,google
48,Alley Apron Menu,1240 W BALMORAL AVE,2019,13229.76,42031,1240 W BALMORAL AVE,41.97997425300008,-87.66025130299994,census
48,Alley Apron Menu,1240 W BALMORAL AVE,2019,3487.61,42032,1240 W BALMORAL AVE,41.97997425300008,-87.66025130299994,census
44,Alley Apron Menu,1243 W HENDERSON ST,2017,9034.84,38677,1243 W HENDERSON ST,41.94254934500003,-87.66067048999997,census
1,Alley Resurfacing Menu,1244 N ASHLAND AVE,2020,7710.855,903,1244 N ASHLAND AVE,NA,NA,census
21,Sidewalk Menu,1244 W 95TH PL,2019,4422.1,18254,1244 W 95TH PL,41.72135836900003,-87.65449327699997,census
49,Sidewalk Menu,1244 W ARTHUR AVE,2018,8097.75,42869,1244 W ARTHUR AVE,42.000426839000056,-87.66263467399995,census
48,Alley Apron Menu,1245 W BRYN MAWR AVE,2016,8523.55,41831,1245 W BRYN MAWR AVE,41.98359775400007,-87.66158406599999,census
21,POD Camera,1246 W 92 nd Street,2007,12000,17684,1246 W 92 nd Street,41.7270811,-87.6549532,google
28,Sidewalk Menu,1249 W FLOURNOY ST,2017,60339.47,24622,1249 W FLOURNOY ST,41.87320039100007,-87.65870076499994,census
29,Street Light Upgrade Menu,125 S AUSTIN BLVD,2021,500,25499,125 S AUSTIN BLVD,41.87837531800005,-87.77458604299994,census
11,In-Road State Law Stop For Pedestrians Signs Menu,1250 S HALSTED ST,2016,600,9035,1250 S HALSTED ST,41.8657745,-87.6471081,google
11,In-Road State Law Stop For Pedestrians Signs Menu,1250 S HALSTED ST,2016,600,9036,1250 S HALSTED ST,41.8657745,-87.6471081,google
37,Alley Speed Hump Menu,1251 N LOCKWOOD AVE,2019,350,32939,1251 N LOCKWOOD AVE,41.9037373,-87.7580066,google
28,Alley Apron Menu,1251 S ASHLAND AVE,2021,39939.8,24758,1251 S ASHLAND AVE,NA,NA,census
2,Street Lighting,1252 S WOLCOTT AV,2009,1000,1633,1252 S WOLCOTT AV,41.8651427,-87.6740092,google
48,Sidewalk Menu,1252 W ROSEDALE AVE,2019,2466.6,42087,1252 W ROSEDALE AVE,41.98904612300004,-87.66243364699994,census
8,Street Light Upgrade Menu,1254 E 97TH PL,2020,500,6487,1254 E 97TH PL,41.7178856,-87.5924838,google
9,Sidewalk Menu,12557 S YALE AVE,2020,17464.6,7259,12557 S YALE AVE,41.66604265600006,-87.62827101699997,census
29,Sidewalk Menu,1256 N WALLER AVE,2019,12030.84,25401,1256 N WALLER AVE,41.90312329500006,-87.76812146599997,census
29,Sidewalk Menu,1256 N WALLER AVE,2022,24323.39,25566,1256 N WALLER AVE,41.90312329500006,-87.76812146599997,census
27,Sidewalk Menu,1257 W FRY ST,2022,9492.92,23958,1257 W FRY ST,41.89713003600008,-87.65782565599994,census
9,Sidewalk Menu,126 E 124TH ST,2022,5575.09,7323,126 E 124TH ST,41.668970183000056,-87.61914976899999,census
1,Miscellaneous-CDOT,1260 N. Milwaukee,2008,36000,263,1260 N. Milwaukee,41.904454368000074,-87.66819496899996,census
10,Bus Pad,12600 S Avenue O,2013,69478,8040,12600 S Avenue O,41.66523141000005,-87.53948339699997,census
24,High Definition Camera Menu,1262 S HOMAN AVE,2016,27011,21064,1262 S HOMAN AVE,41.864490964000026,-87.71049482799998,census
9,Sidewalk Menu,12622 S WENTWORTH AVE,2021,3286.62,7290,12622 S WENTWORTH AVE,41.66495655500006,-87.62704735099999,census
48,Street Bump Outs Menu,1263 W THORNDALE AVE,2017,30000,41941,1263 W THORNDALE AVE,41.98996131200005,-87.66288321499997,census
1,Sidewalk Menu,1264 N WOOD ST,2019,2097.82,900,1264 N WOOD ST,41.905189190000044,-87.67242987599997,census
9,Sidewalk Menu,12658 S WALLACE ST,2022,14703.97,7322,12658 S WALLACE ST,41.66366283200006,-87.63661807399995,census
10,Miscellaneous-CDOT,12700 S. Carondolet Ave. (Park),2007,21093,7719,12700 S. Carondolet Ave.,41.66547188000004,-87.54956352599999,census
28,Street Resurfacing Menu,1275 W LEXINGTON ST,2018,3986.245,24679,1275 W LEXINGTON ST,41.872234252000055,-87.65786757099994,census
10,Sidewalk Menu,12758 S SAGINAW AVE,2016,10203.37,8202,12758 S SAGINAW AVE,41.66317944100007,-87.55806067699996,census
10,Sidewalk Menu,12800 S MUSKEGON AVE,2018,6485.5,8270,12800 S MUSKEGON AVE,41.66269440200006,-87.55441865899996,census
34,Curb & Gutter Menu,12822 S MORGAN ST,2021,10679.6,30344,12822 S MORGAN ST,41.660087471000054,-87.64618699099998,census
10,Sidewalk Menu,12857 S MARQUETTE AVE,2021,8072.14,8432,12857 S MARQUETTE AVE,41.661809891000075,-87.55683447299998,census
1,Sidewalk Menu,1289 N MILWAUKEE AVE,2019,22454.92,880,1289 N MILWAUKEE AVE,41.9052972,-87.6691973,google
17,Bollard Menu,1299 S ADA ST,2005,1428,14691,1299 S ADA ST,41.6766771,-87.6544168,google
17,Guardrail Menu,1299 S ADA ST,2005,2196,14696,1299 S ADA ST,41.6766771,-87.6544168,google
6,POD CAMERA - 130 EAST 71ST ST,130 E 71ST ST,2019,24776,4944,130 E 71ST ST,41.76545295500006,-87.62923706799995,census
27,Curb & Gutter Menu,130 S GREEN ST,2022,49980.43,23952,130 S GREEN ST,41.88003650700006,-87.64848233699996,census
8,Street Resurfacing Menu,1300 E 88TH PL,2016,29227.39,6385,1300 E 88TH PL,41.734086915000034,-87.59302635099993,census
2,Street Light Pole for High Definition Camera Menu,1300 N CLEVELAND AVE,2022,3500,2482,1300 N CLEVELAND AVE,41.90573744200003,-87.64085832499995,census
37,Sidewalk Menu,1300 N LAMON AVE,2017,11190.85,32838,1300 N LAMON AVE,41.904636724000056,-87.74847536599998,census
1,Street Light Upgrade,1300 N LEAVITT ST,2012,700,476,1300 N LEAVITT ST,41.9050425,-87.6824788,google
29,1 POD Camera + Existing LPR: 1300-1400 N Mayfield,1300 N MAYFIELD AVE,2021,35747,25447,1300 N MAYFIELD AVE,41.90399363100005,-87.77300489399994,census
26,Street Resurfacing Menu,1300 N RIDGEWAY AVE,2020,36528.43,23055,1300 N RIDGEWAY AVE,41.9047564,-87.7206205,google
26,Alley Resurfacing Menu,1300 N RIDGEWAY AVE,2022,25436.955,23135,1300 N RIDGEWAY AVE,41.9047564,-87.7206205,google
2,Street Light Pole for High Definition Camera Menu,1300 N STATE PKWY,2022,1500,2483,1300 N STATE PKWY,41.9059944,-87.6290176,google
27,POD Camera,1300 N. Springfield,2011,22500,23563,1300 N. Springfield,41.9045771,-87.7242985,google
24,Alley Speed Hump Menu,1300 S ALBANY AVE,2021,700,21229,1300 S ALBANY AVE,41.864474148000056,-87.70310708599999,census
49,Guardrail Menu,1300 W BIRCHWOOD AV,2007,2089,42337,1300 W BIRCHWOOD AV,42.018251330000055,-87.66353035599997,census
48,Sidewalk Menu,1300 W THORNDALE AVE,2019,1794.18,42085,1300 W THORNDALE AVE,41.98997227600006,-87.66288310899995,census
32,Chicago Park District,1300 W Wolfran,2006,10000,27947,1300 W Wolfran,41.93342620900006,-87.66151881699994,census
10,POD Camera at NE Corner of 13000 S Torrence,13000 S TORRENCE AVE,2021,10971,8418,13000 S TORRENCE AVE,41.65909547600006,-87.55929076199999,census
37,Curb & Gutter Menu,1301 N LONG AVE,2021,20266.39,33012,1301 N LONG AVE,41.904041935000066,-87.76101089299999,census
3,Alley Resurfacing Menu,1301 S WABASH AVE,2016,13179.11,2883,1301 S WABASH AVE,41.86562898100004,-87.62578670099998,census
28,POD Camera,1301 S. Fairfield,2006,24000,24129,1301 S. Fairfield,41.8646245,-87.6943197,google
49,Miscellaneous Other,1301 W ALBION AVE,2015,6000,42693,1301 W ALBION AVE,42.00244279200007,-87.66364419699994,census
48,Sidewalk Menu,1301 W ELMDALE AVE,2018,1699,42012,1301 W ELMDALE AVE,41.99088264400007,-87.66291819099996,census
28,Street Resurfacing Menu,1301 W LEXINGTON ST,2019,633.11,24717,1301 W LEXINGTON ST,41.87222081900006,-87.65864317099994,census
32,One Alley Light,1301 W WELLINGTON AVE,2017,500,28427,1301 W WELLINGTON AVE,41.93615188200005,-87.66144663099999,census
10,Sidewalk Menu,13028 S MARQUETTE AVE,2021,423.92,8433,13028 S MARQUETTE AVE,41.6583127,-87.5571022,google
24,Alley Resurfacing Menu (1-1),1303 S SPAULDING AVE,2017,26160.26,21088,1303 S SPAULDING AVE,41.90475243100008,-87.70928465699996,census
24,Sidewalk Menu,1303 S SPAULDING AVE,2017,5733.3,21099,1303 S SPAULDING AVE,41.90475243100008,-87.70928465699996,census
49,Alley Resurfacing Menu,1304 W NORTH SHORE AVE,2018,32677.365,42829,1304 W NORTH SHORE AVE,42.003506446000074,-87.66386865799996,census
46,Curb & Gutter Menu,1304 W SUNNYSIDE AVE,2022,2986.75,40272,1304 W SUNNYSIDE AVE,NA,NA,census
49,Street Lighting,1305 W FARWELL AV,2008,800,42397,1305 W FARWELL AV,42.006725000000074,-87.66389876899996,census
49,Street Lighting,1305 W FARWELL AV,2008,500,42398,1305 W FARWELL AV,42.006725000000074,-87.66389876899996,census
28,Street Resurfacing Menu,1305 W LEXINGTON ST,2018,3986.245,24679,1305 W LEXINGTON ST,41.87221639100005,-87.65889879299993,census
10,Sidewalk Menu,13057 S AVENUE O,2016,5851.04,8199,13057 S AVENUE O,41.6574783,-87.5396793,google
4,Pedestrian Refuge Island Menu,1306 E 47TH ST,2021,46650.21,3784,1306 E 47TH ST,41.810345,-87.5950541,google
48,Sidewalk Menu,1307 W CATALPA AVE,2021,4052.12,42175,1307 W CATALPA AVE,41.98173466900005,-87.66381814399995,census
28,Curb & Gutter Menu,1308 W FILLMORE ST,2020,39400.73,24750,1308 W FILLMORE ST,41.86858981600005,-87.65953346699996,census
49,Sidewalk Menu,1309 W GREENLEAF AVE,2016,4801.82,42747,1309 W GREENLEAF AVE,42.01037752700006,-87.66356541399995,census
9,Sidewalk Menu,131 E 124TH ST,2022,5585.94,7324,131 E 124TH ST,41.6687595,-87.6189653,google
4,Curb & Gutter Menu,1310 E 49TH ST,2018,14321.54,3690,1310 E 49TH ST,41.805044241000076,-87.65951122199994,census
48,Alley Resurfacing Menu,1310 W BRYN MAWR AVE,2017,2496.305,41886,1310 W BRYN MAWR AVE,41.9838013,-87.6631028,google
10,Sidewalk Menu,13101 S AVENUE N,2022,7214.52,8505,13101 S AVENUE N,41.6571747,-87.5383685,google
17,Street Light Upgrade Menu,1311 W 78TH ST,2017,500,15198,1311 W 78TH ST,41.75323357100007,-87.59253613399994,census
21,Sidewalk Menu,1311 W 97TH PL,2019,4505.7,18297,1311 W 97TH PL,41.71695129900007,-87.65564934699995,census
48,Sidewalk Menu,1311 W ROSEDALE AVE,2019,920.95,42088,1311 W ROSEDALE AVE,41.989022773000045,-87.66342160099998,census
4,Alley Resurfacing Menu,1312 E 53RD ST,2017,5553.01,3645,1312 E 53RD ST,41.7997241,-87.5944529,google
37,Sidewalk Menu,1312 N LARAMIE AVE,2017,7208.09,32836,1312 N LARAMIE AVE,41.90440112400006,-87.75583053499997,census
10,Street Lighting,13131 S BRAINARD AV,2009,500,7896,13131 S BRAINARD AV,41.65570599500006,-87.55523101699998,census
9,Guardrail Menu,13134 S VERNON AV,2008,8800,6853,13134 S VERNON AV,41.656545196000025,-87.61159574199996,census
10,Concrete Alley Menu,13138 S MUSKEGON AVE,2017,16000,8223,13138 S MUSKEGON AVE,41.656677209000065,-87.55442497199994,census
27,Miscellaneous-CDOT,1314 N Clybourn,2011,6912,23552,1314 N Clybourn,41.9058977,-87.6429619,google
44,Alley Apron Menu,1314 W HENDERSON ST,2015,6936,38553,1314 W HENDERSON ST,41.94253597900007,-87.66217067999997,census
44,Alley Apron Menu,1314 W MELROSE ST,2017,10482,38698,1314 W MELROSE ST,41.94069519300007,-87.66212610599996,census
44,Sidewalk Menu,1314 W ROSCOE ST,2016,18360.09,38656,1314 W ROSCOE ST,41.943452111000056,-87.66222285699996,census
44,Alley Apron Menu,1315 W MELROSE ST,2017,10025.09,38682,1315 W MELROSE ST,41.94068332900008,-87.66219179399997,census
48,Sidewalk Menu,1316 W ELMDALE AVE,2019,4229.07,42092,1316 W ELMDALE AVE,41.990881614000045,-87.66373229899995,census
46,Miscellaneous CDOT Projects,1316 W WILSON AVE,2016,750,40084,1316 W WILSON AVE,NA,NA,census
49,Bollard Menu,1318 W SHERWIN AV,2008,1428,42370,1318 W SHERWIN AV,42.01500983100004,-87.66582984599995,census
1,Alley Speed Hump Menu,1319 N BELL AVE,2016,700,643,1319 N BELL AVE,41.90533860600004,-87.68341616999999,census
2,Street Lighting,1319 S ASHLAND AV,2010,250,1810,1319 S ASHLAND AV,NA,NA,census
2,Street Light Upgrade,1319 S STATE ST,2012,21000,2012,1319 S STATE ST,NA,NA,census
2,Miscellaneous Other,1319 S STATE ST,2013,34200,2042,1319 S STATE ST,NA,NA,census
2,Street Resurfacing Menu,1319 W WEBSTER AVE,2015,20879,2205,1319 W WEBSTER AVE,41.92162955200007,-87.66155265499998,census
25,Sidewalk Menu,132 W 18TH ST,2022,9698.89,22285,132 W 18TH ST,41.8583377,-87.6305433,google
48,Sidewalk Menu,1321 W BERWYN AVE,2022,15107.21,42236,1321 W BERWYN AVE,41.97808930000008,-87.66343824499995,census
10,Alley Resurfacing Menu,13215 S AVENUE L,2016,5667.14,8173,13215 S AVENUE L,41.65488584700006,-87.53623409199997,census
10,Sidewalk Menu,13217 S ESCANABA AVE,2016,6354.45,8193,13217 S ESCANABA AVE,41.65520507100007,-87.55319399699994,census
10,Sidewalk Menu,13236 S AVENUE L,2020,4278.86,8373,13236 S AVENUE L,41.65459856700005,-87.53625002399997,census
49,Street Light Upgrade Menu,1324 W DEVON AVE,2018,683.333333333333,42879,1324 W DEVON AVE,41.99815675000008,-87.66412104099999,census
10,Street Speed Hump Menu,13245 S GREEN BAY AVE,2020,4700,8399,13245 S GREEN BAY AVE,41.654668611000034,-87.54108724399998,census
29,Alley Speed Hump Menu,1325 N MASSASOIT AVE,2017,700,25257,1325 N MASSASOIT AVE,41.90442201400003,-87.76936515799997,census
2,Curb & Gutter Menu,1325 N NOBLE ST,2019,18709.22,2359,1325 N NOBLE ST,41.90638209600007,-87.66269904799998,census
2,Curb & Gutter Menu,1325 N NOBLE ST,2019,3500.7,2361,1325 N NOBLE ST,41.90638209600007,-87.66269904799998,census
43,Miscellaneous Other,1325 N STATE PKWY,2013,35560,37677,1325 N STATE PKWY,41.9062973,-87.6284545,google
21,Sidewalk Menu,1325 W 97TH ST,2021,5690.95,18400,1325 W 97TH ST,41.71808524200003,-87.65596577599996,census
10,Sidewalk Menu,13251 S HOUSTON AVE,2017,3539.72,8244,13251 S HOUSTON AVE,41.65458192600005,-87.54836817999995,census
10,Sidewalk Menu,13257 S HOUSTON AVE,2017,3123.52,8245,13257 S HOUSTON AVE,41.654487860000074,-87.54836852399995,census
10,Miscellaneous CDOT Projects,13259 S HOUSTON AVE,2021,660,8415,13259 S HOUSTON AVE,41.65445650500004,-87.54836863899999,census
25,Street Lighting,1327 W CULLERTON ST,2011,1350,21835,1327 W CULLERTON ST,41.855177301000026,-87.65964218499994,census
49,Sidewalk Menu,1327 W GREENLEAF AVE,2017,6909.71,42789,1327 W GREENLEAF AVE,42.01037055300003,-87.66401868699995,census
29,Sidewalk Menu,1328 N MENARD AVE,2021,4962.08,25477,1328 N MENARD AVE,41.90474641000003,-87.77060483699995,census
48,Curb & Gutter Menu,1329 W ROSEDALE AVE,2022,5417.85,42224,1329 W ROSEDALE AVE,41.989018431000034,-87.66371830499997,census
4,Kenwood Park Benches,1330 E 50TH ST,2021,54000,3772,1330 E 50TH ST,41.863347618000034,-87.75078958199998,census
4,Kenwood Park - Infield Resizing,1330 E 50TH ST,2021,27140,3773,1330 E 50TH ST,41.863347618000034,-87.75078958199998,census
4,Kenwood Park Black Top Replacement,1330 E 50TH ST,2022,60000,3813,1330 E 50TH ST,41.863347618000034,-87.75078958199998,census
10,Sidewalk Menu - Change Order,13300 S Avenue N,2011,309,7966,13300 S Avenue N,41.6535117,-87.5390246,google
10,Sidewalk Menu,13300 S Avenue N,2012,3583,8017,13300 S Avenue N,41.6535117,-87.5390246,google
10,Sidewalk Menu - Change Order,13300 S Avnue N,2010,417,7924,13300 S Avnue N,41.6535117,-87.5390246,google
1,Miscellaneous-CDOT,1331 N. Milwaukee,2008,800,255,1331 N. Milwaukee,41.9061256,-87.6705382,google
10,Sidewalk Menu,13312 S AVENUE K,2021,4050.94,8434,13312 S AVENUE K,41.65332673100005,-87.53503878099997,census
1,Sidewalk Menu,1332 N WOLCOTT AVE,2019,1194.74,887,1332 N WOLCOTT AVE,41.9060072,-87.674583,google
28,Sidewalk Menu,1332 W FLOURNOY ST,2016,20378,24580,1332 W FLOURNOY ST,41.87318550500004,-87.66057881899997,census
28,Sidewalk Menu,1332 W FLOURNOY ST,2017,28483.35,24624,1332 W FLOURNOY ST,41.87318550500004,-87.66057881899997,census
49,Sidewalk Menu,1332 W GREENLEAF AVE,2022,16011.18,43038,1332 W GREENLEAF AVE,42.01038018300005,-87.66410561899994,census
10,Sidewalk Menu,13326 S BURLEY AVE,2019,3474,8340,13326 S BURLEY AVE,41.65312232100007,-87.54473163299997,census
8,Street Light Upgrade,1333 E 75TH ST,2013,800,6245,1333 E 75TH ST,41.758713138000076,-87.59177504599995,census
48,Sidewalk Menu,1334 W THORNDALE AVE,2019,2882.47,42086,1334 W THORNDALE AVE,41.989976170000034,-87.66361261599997,census
10,Alley Resurfacing Menu,13342 S MACKINAW AVE,2021,21171.95,8404,13342 S MACKINAW AVE,41.652872055000046,-87.54230673699999,census
10,Sidewalk Menu,13346 S CARONDOLET AVE,2016,6280.59,8201,13346 S CARONDOLET AVE,41.65281964400003,-87.54958055099996,census
3,Curb & Gutter Menu,1335 S INDIANA AVE,2017,15702.86,2935,1335 S INDIANA AVE,41.86519378600008,-87.62237479599997,census
21,Sidewalk Menu,1335 W 90TH ST,2018,35140.34,18201,1335 W 90TH ST,41.73041106000005,-87.65695935999997,census
44,Alley Apron Menu,1338 W CORNELIA AVE,2017,10112.21,38680,1338 W CORNELIA AVE,41.94526927800007,-87.66293923199999,census
48,Sidewalk Menu,1339 W CATALPA AVE,2022,6210.34,42237,1339 W CATALPA AVE,41.98173025600005,-87.66415312199996,census
27,POD Camera,134 N Paulina,2008,24000,23419,134 N Paulina,41.883625488000064,-87.66937218899994,census
29,Street Speed Hump Menu,1340 N WALLER AVE,2022,2350,25592,1340 N WALLER AVE,41.90468417900007,-87.76817756599996,census
49,Alley Resurfacing Menu,1340 W DEVON AVE,2017,30933.93,42773,1340 W DEVON AVE,41.998153381000066,-87.66452340699999,census
48,Alley Apron Menu,1340 W ROSEMONT AVE,2017,11244.33,41878,1340 W ROSEMONT AVE,41.99634568300007,-87.66404019099997,census
48,Sidewalk Menu,1340 W THORNDALE AVE,2018,688,42011,1340 W THORNDALE AVE,41.98997676400006,-87.66372383799995,census
10,Sidewalk Menu,13400 S BRANDON AVE,2022,8924.81,8506,13400 S BRANDON AVE,41.651707728000076,-87.54592865599994,census
48,Curb & Gutter Menu,1342 W HOOD AVE,2020,7298.82,42133,1342 W HOOD AVE,41.99359174700004,-87.66392360699996,census
44,Alley Apron Menu,1342 W NEWPORT AVE,2017,11256.68,38699,1342 W NEWPORT AVE,41.94436192300003,-87.66231199099997,census
44,Alley Apron Menu,1342 W WAVELAND AVE,2022,16907.375,38888,1342 W WAVELAND AVE,41.948906169000054,-87.66339937899994,census
10,Alley Speed Hump Menu,13425 S BURLEY AVE,2022,700,8484,13425 S BURLEY AVE,41.65132860800003,-87.54472409499994,census
10,Sidewalk Menu,13447 S HOUSTON AVE,2017,13880.81,8234,13447 S HOUSTON AVE,41.65118267500003,-87.54838402299998,census
10,Sidewalk Menu,13448 S BUFFALO AVE,2019,8416,8334,13448 S BUFFALO AVE,41.650953161000075,-87.54352074299999,census
49,Street Light Upgrade Menu,1345 W LUNT AVE,2018,683.333333333333,42879,1345 W LUNT AVE,42.00913101300006,-87.66537017299999,census
48,Alley Apron Menu,1345 W ROSEMONT AVE,2018,5323.735,41966,1345 W ROSEMONT AVE,41.99632994800004,-87.66464263499995,census
10,Sidewalk Menu,13451 S BRANDON AVE,2016,7579.72,8195,13451 S BRANDON AVE,41.65092383500007,-87.54591604899997,census
44,Alley Apron Menu,1346 W HENDERSON ST,2017,10701.6,38676,1346 W HENDERSON ST,41.94251748900007,-87.66330830299995,census
44,Sidewalk Menu,1346 W HENDERSON ST,2017,880,38722,1346 W HENDERSON ST,41.94251748900007,-87.66330830299995,census
10,Miscellaneous-CDOT,13460 S Baltimore Ave,2006,100000,7640,13460 S Baltimore Ave,41.651243511000075,-87.54716366099996,census
44,Alley Apron Menu,1347 W GRACE ST,2017,10958.41,38696,1347 W GRACE ST,41.9507908,-87.6636285,google
29,Curb & Gutter Menu,135 N MASON AVE,2018,3679.63,25327,135 N MASON AVE,41.87826056200004,-87.77294898699995,census
48,Alley Apron Menu,1350 W BALMORAL AVE,2018,14518.53,41969,1350 W BALMORAL AVE,41.9800667,-87.6643345,google
32,Alley Apron Menu,1350 W SCHUBERT AVE,2019,10519.77,28509,1350 W SCHUBERT AVE,41.9308044,-87.6631442,google
48,Alley Apron Menu,1351 W BALMORAL AVE,2019,17439.85,42033,1351 W BALMORAL AVE,41.9797391,-87.6645209,google
24,Guardrail Menu,1352 S INDEPENDENCE W BV,2008,1869,20789,1352 S INDEPENDENCE W BV,41.862849,-87.7206677,google
10,Sidewalk Menu,13525 S MACKINAW AVE,2019,13453,8332,13525 S MACKINAW AVE,41.64928946400005,-87.54230364899996,census
49,Sidewalk Menu,1355 W ARTHUR AVE,2018,11788.35,42868,1355 W ARTHUR AVE,42.00038918100006,-87.66483015299997,census
48,Sidewalk Menu,1355 W NORWOOD ST,2021,14795.55,42176,1355 W NORWOOD ST,41.99177196200003,-87.66407506499996,census
37,Curb & Gutter Menu,1358 N LARAMIE AVE,2017,8286.955,32830,1358 N LARAMIE AVE,41.90513086800007,-87.75584675199997,census
37,Curb & Gutter Menu,1358 N LARAMIE AVE,2018,139.13,32887,1358 N LARAMIE AVE,41.90513086800007,-87.75584675199997,census
10,Street Lighting,13600 S. TORRENCE,2008,500,7845,13600 S. TORRENCE,41.648049,-87.5596891,google
27,Alley Resurfacing Menu,1361 W HUBBARD ST,2018,23765.84,23830,1361 W HUBBARD ST,41.889940539000065,-87.66132079799996,census
1,Sidewalk Menu,1364 W GRAND AVE,2018,15931.05,813,1364 W GRAND AVE,41.8912473,-87.6615213,google
28,Street Light Upgrade Menu,137 S WHIPPLE ST,2021,625,24774,137 S WHIPPLE ST,41.87864293000007,-87.70237590199997,census
1,Sidewalk Menu,1378 W GRAND AVE,2019,12964.67,876,1378 W GRAND AVE,41.891259,-87.6620992,google
2,Floodlight Menu,140 E LAKE SHORE DR,2018,900,2323,140 E LAKE SHORE DR,41.900867375000075,-87.62295551799997,census
42,Miscellaneous Other,140 S DEARBORN ST,2015,3000,36805,140 S DEARBORN ST,41.8797985,-87.6295472,google
2,High Definition Camera Menu,140 W DIVISION ST,2016,27011,2241,140 W DIVISION ST,41.9038726,-87.6329964,google
1,Alley Resurfacing Menu,1400 N CAMPBELL AVE,2019,21031.25,834,1400 N CAMPBELL AVE,NA,NA,census
26,Street Speed Hump Menu,1400 N KARLOV AVE,2019,2350,23007,1400 N KARLOV AVE,41.86233823500004,-87.72751055899994,census
26,Alley Resurfacing Menu,1400 N KEELER AVE,2019,27080.475,22957,1400 N KEELER AVE,41.86230612500003,-87.72995029799995,census
26,Alley Resurfacing Menu,1400 N KILDARE AVE,2019,14275.635,22959,1400 N KILDARE AVE,41.90629558300003,-87.73378204099998,census
37,Sidewalk Menu,1400 N LATROBE AVE,2022,13167.74,33089,1400 N LATROBE AVE,41.906007645000045,-87.75710864899997,census
37,Alley Resurfacing Menu,1400 N LAWLER AVE,2019,21948.26,32929,1400 N LAWLER AVE,41.906064240000035,-87.75219233399997,census
37,Alley Speed Hump Menu,1400 N LAWLER AVE,2019,700,32941,1400 N LAWLER AVE,41.906064240000035,-87.75219233399997,census
26,Street Resurfacing Menu (1-5),1400 N LAWNDALE AVE,2020,31568.625,23049,1400 N LAWNDALE AVE,41.86232249500006,-87.71774879199995,census
37,Street Resurfacing Menu,1400 N LECLAIRE AVE,2017,69249.33,32852,1400 N LECLAIRE AVE,41.90605186300007,-87.75341437299994,census
37,Street Speed Hump Menu,1400 N LOCKWOOD AVE,2018,3700,32918,1400 N LOCKWOOD AVE,41.905991570000026,-87.75835079499996,census
37,Alley Resurfacing Menu,1400 N LOCKWOOD AVE,2018,21935.525,32871,1400 N LOCKWOOD AVE,41.905991570000026,-87.75835079499996,census
37,Alley Resurfacing Menu,1400 N LOCKWOOD AVE,2018,2002.65,32878,1400 N LOCKWOOD AVE,41.905991570000026,-87.75835079499996,census
37,Alley Resurfacing Menu,1400 N LUNA AVE,2018,21534.58,32875,1400 N LUNA AVE,41.90591883600007,-87.76455507999998,census
1,Curb & Gutter Menu,1400 N OAKLEY BLVD,2021,63608.37,955,1400 N OAKLEY BLVD,41.90682539200003,-87.68469508599998,census
26,Alley Resurfacing Menu,1400 N RIDGEWAY AVE,2019,19917.57,22960,1400 N RIDGEWAY AVE,41.9064803,-87.7205712,google
2,Pole Painting,1400 S ASHLAND AV,2009,300,1583,1400 S ASHLAND AV,41.863106,-87.666699,google
2,Street Lighting,1400 S ASHLAND AV,2009,400,1634,1400 S ASHLAND AV,41.863106,-87.666699,google
24,1 POD Camera: 1400 S Sacramento,1400 S SACRAMENTO DR,2021,24776,21215,1400 S SACRAMENTO DR,41.8629815,-87.7019178,google
34,Alley Apron Menu,1400 W 112TH PL,2022,34263.15,30390,1400 W 112TH PL,41.68934337500008,-87.65700861399995,census
48,Alley Speed Hump Menu,1400 W BALMORAL AVE,2022,700,42217,1400 W BALMORAL AVE,41.97990577100006,-87.66489806599998,census
49,Heat lamp shelter bench installation at Jarvis Morse and northbound Loyola stations,1400 W MORSE AVE,2017,3000,42785,1400 W MORSE AVE,42.0082452,-87.6659825,google
49,Sidewalk Menu,1400 W SHERWIN AVE,2016,4053.31,42734,1400 W SHERWIN AVE,42.01499627700008,-87.66665072999996,census
2,Alley Apron Menu,1401 N DEARBORN ST,2021,10059.91,2418,1401 N DEARBORN ST,41.90798867900003,-87.63010167499993,census
26,Alley Apron Menu,1401 N KEELER AVE,2021,14900.33,23068,1401 N KEELER AVE,41.86230639400003,-87.72993557999996,census
26,Alley Resurfacing Menu,1401 N KILDARE AVE,2019,13938.865,22955,1401 N KILDARE AVE,41.90629558300003,-87.73376730799998,census
26,Alley Resurfacing Menu,1401 N KOSTNER AVE,2019,10532.385,22954,1401 N KOSTNER AVE,41.90625578300006,-87.73623473399994,census
37,Bollard Menu,1401 N LEAMINGTON AV,2006,4998,32358,1401 N LEAMINGTON AV,41.90603596100004,-87.75463374699996,census
37,Bollard Menu,1401 N LUNA AV,2009,714,32538,1401 N LUNA AV,41.905919108000035,-87.76454035199998,census
26,Alley Resurfacing Menu,1401 N RIDGEWAY AVE,2022,22978.12,23136,1401 N RIDGEWAY AVE,41.9064898,-87.7200516,google
24,Douglas Park Playground,1401 S SACRAMENTO DR,2016,264257,21063,1401 S SACRAMENTO DR,41.8635955,-87.7004276,google
24,Douglas Park Playground,1401 S SACRAMENTO DR,2017,20743,21094,1401 S SACRAMENTO DR,41.8635955,-87.7004276,google
24,Douglas Park - Tennis Courts,1401 S SACRAMENTO DR,2018,25000,21129,1401 S SACRAMENTO DR,41.8635955,-87.7004276,google
24,Douglas Park -Fence around Pergola,1401 S SACRAMENTO DR,2018,50000,21130,1401 S SACRAMENTO DR,41.8635955,-87.7004276,google
24,Douglas Park Mini Golf Course Improvements,1401 S SACRAMENTO DR,2019,50000,21167,1401 S SACRAMENTO DR,41.8635955,-87.7004276,google
17,Sidewalk Menu,1401 W 71ST PL,2022,10447.01,15376,1401 W 71ST PL,41.76406854500004,-87.65906912799994,census
48,Sidewalk Menu,1401 W HOLLYWOOD AVE,2018,31323,42009,1401 W HOLLYWOOD AVE,41.98548918300003,-87.66529201499998,census
49,Alley Apron Menu,1403 W CHASE AVE,2021,12740.93,42945,1403 W CHASE AVE,42.013901962000034,-87.66645682899997,census
26,Alley Speed Hump Menu,1409 N KOSTNER AVE,2019,700,22968,1409 N KOSTNER AVE,41.90636045700006,-87.73623756299997,census
21,Sidewalk Menu,1411 W 87TH ST,2022,45409.35,18471,1411 W 87TH ST,41.7355604,-87.6586719,google
47,Alley Apron Menu,1411 W ARGYLE ST,2016,8782.06,40951,1411 W ARGYLE ST,41.972586883000076,-87.66514861299999,census
5,Bollard Menu,1412 E 76 ST,2007,514,3960,1412 E 76 ST,41.756914839000046,-87.59018339999994,census
17,Bollard Menu,1412 W MARQUETTE RD,2008,714,14865,1412 W MARQUETTE RD,41.7724455,-87.6597312,google
48,Alley Apron Menu,1413 W CATALPA AVE,2018,10572.56,41959,1413 W CATALPA AVE,41.981713,-87.6655185,google
24,Bollard Menu,1414 S AVERS AV,2010,1260,20841,1414 S AVERS AV,41.861829330000035,-87.72139263999998,census
48,Sidewalk Menu,1414 W NORWOOD ST,2022,478.61,42238,1414 W NORWOOD ST,41.99176110800005,-87.66568192699998,census
48,Alley Apron Menu,1414 W THOME AVE,2018,5737.185,41963,1414 W THOME AVE,41.995467080000026,-87.66628811399994,census
24,Bollard Menu,1415 S SPRINGFIELD AV,2008,1428,20786,1415 S SPRINGFIELD AV,41.8620306,-87.7223604,google
48,Alley Apron Menu,1415 W BRYN MAWR AVE,2017,11703.48,41874,1415 W BRYN MAWR AVE,41.98353375100004,-87.66609400199997,census
48,Alley Apron Menu,1415 W GREGORY ST,2017,6903.88,41877,1415 W GREGORY ST,41.9824042,-87.6655442,google
49,Sidewalk Menu,1415 W LUNT AVE,2021,17899.89,42973,1415 W LUNT AVE,42.00910864300005,-87.66652775999995,census
44,Alley Apron Menu,1415 W SCHOOL ST,2017,9386.53,38678,1415 W SCHOOL ST,41.9413728,-87.6645435,google
37,Sidewalk Menu,1416 N LOCKWOOD AVE,2017,1929.21,32844,1416 N LOCKWOOD AVE,41.90624536800004,-87.75835670899994,census
48,Alley Apron Menu,1417 W BERWYN AVE,2018,10432.75,41967,1417 W BERWYN AVE,41.97805218500008,-87.66592036499998,census
48,Sidewalk Menu,1417 W GLENLAKE AVE,2021,4052.12,42177,1417 W GLENLAKE AVE,41.992654034000054,-87.66575232899999,census
27,Sidewalk Menu,1418 N LA SALLE DR,2017,10642.02,23807,1418 N LA SALLE DR,41.90804344500003,-87.63313760199998,census
25,Sidewalk Menu,1419 W 19TH ST,2020,3393.365,22193,1419 W 19TH ST,41.856042767000076,-87.66207451599996,census
49,Bollard Menu,1419 W BIRCHWOOD AV,2010,630,42436,1419 W BIRCHWOOD AV,42.018186350000065,-87.66689580499997,census
5,Alley Resurfacing Menu,1420 E 66TH PL,2018,20363.34,4384,1420 E 66TH PL,41.774214319000066,-87.59071931599999,census
27,Sidewalk Menu,1420 W CARROLL AVE,2022,54906.11,23959,1420 W CARROLL AVE,41.887445023000055,-87.66352784399999,census
20,Street Lighting,1421 E 63 ST,2008,1859,17048,1421 E 63 ST,41.77951912000003,-87.66087791399997,census
1,Miscellaneous-Other,1421 N Artesian Ave,2011,2019,443,1421 N Artesian Ave,41.907345,-87.6880896,google
25,Sidewalk Menu,1421 W 19TH ST,2020,3393.365,22193,1421 W 19TH ST,41.856042767000076,-87.66207953799994,census
48,Alley Resurfacing Menu,1421 W BERWYN AVE,2022,2979.37,42208,1421 W BERWYN AVE,41.978050953000036,-87.66600182699995,census
26,Sidewalk Menu,1422 N KEELER AVE,2021,3070.48,23115,1422 N KEELER AVE,41.86195561900007,-87.72993968599997,census
24,Sidewalk Menu,1422 S DRAKE AVE,2021,7355.18,21250,1422 S DRAKE AVE,41.861696,-87.7143307,google
24,Miscellaneous CDOT Projects,1422 S KEDVALE AVE,2022,300,21293,1422 S KEDVALE AVE,41.861619,-87.7290228,google
48,School Projects,1423 W BRYN MAWR AVE,2013,100000,41717,1423 W BRYN MAWR AVE,41.983531767000045,-87.66621747599999,census
48,Mural at Peirce Elementary School,1423 W BRYN MAWR AVE,2017,18900,41924,1423 W BRYN MAWR AVE,41.983531767000045,-87.66621747599999,census
48,Peirce Elementary Mural,1423 W BRYN MAWR AVE,2018,20000,42004,1423 W BRYN MAWR AVE,41.983531767000045,-87.66621747599999,census
49,Miscellaneous CDOT Projects,1424 W DEVON AVE,2022,660,43035,1424 W DEVON AVE,41.998133223000025,-87.66644570899996,census
44,Miscellaneous Other Projects,1424 W MELROSE ST,2019,1246.66666666667,38790,1424 W MELROSE ST,41.94067142700004,-87.66478478199997,census
48,Alley Apron Menu,1425 W VICTORIA ST,2018,12419.37,41958,1425 W VICTORIA ST,41.987192175000075,-87.66611306399994,census
49,Curb & Gutter Menu,1426 W BIRCHWOOD AVE,2018,12004.66,42856,1426 W BIRCHWOOD AVE,42.01819537600005,-87.66701383399999,census
49,Sidewalk Menu,1429 W LUNT AVE,2016,7286.57,42746,1429 W LUNT AVE,42.009104430000036,-87.66673412199998,census
26,Street Light Upgrade,1430 N RIDGEWAY AVE,2015,400,22802,1430 N RIDGEWAY AVE,41.9072663,-87.7206192,google
48,Curb & Gutter Menu,1430 W HOLLYWOOD AVE,2019,11184.31,42052,1430 W HOLLYWOOD AVE,41.98548769400003,-87.66601756199998,census
48,Curb & Gutter Menu,1430 W HOLLYWOOD AVE,2019,2219.39,42070,1430 W HOLLYWOOD AVE,41.98548769400003,-87.66601756199998,census
28,Miscellaneous CDOT Projects,1431 W TAYLOR ST,2019,3361.68176470588,24704,1431 W TAYLOR ST,41.86931481200003,-87.66297158699996,census
48,Sidewalk Menu,1433 W RASCHER AVE,2017,1185.1,41939,1433 W RASCHER AVE,41.980787270000064,-87.66613234099998,census
6,Sidewalk Menu,1434 W 71ST PL,2017,13372.73,4889,1434 W 71ST PL,41.76405798300004,-87.66028101899997,census
34,Alley Apron Menu,1435 W 112TH PL,2017,29229.57,30201,1435 W 112TH PL,41.689317939000034,-87.65837604299998,census
17,Bollard Menu,1435 W 72 ST,2008,714,14864,1435 W 72 ST,41.76313853400006,-87.66026001899996,census
44,Miscellaneous CDOT Projects,1436 W ADDISON ST,2017,500,38719,1436 W ADDISON ST,41.947052787000075,-87.66541691799995,census
48,Street Speed Hump Menu,1436 W GLENLAKE AVE,2019,2350,42113,1436 W GLENLAKE AVE,41.99265924500003,-87.66617020899997,census
49,Sidewalk Menu,1436 W SHERWIN AVE,2022,3594.28,43039,1436 W SHERWIN AVE,42.014990483000076,-87.66701112699997,census
25,Street Light Upgrade Menu,1437 W 18TH ST,2020,500,22200,1437 W 18TH ST,NA,NA,census
49,Alley Apron Menu,1440 W FARWELL AVE,2017,10839.48,42765,1440 W FARWELL AVE,42.00667944500003,-87.66684152899995,census
49,Alley Resurfacing Menu,1440 W FARWELL AVE,2017,23243.16,42775,1440 W FARWELL AVE,42.00667944500003,-87.66684152899995,census
49,Sidewalk Menu,1440 W FARWELL AVE,2021,1163.48,42974,1440 W FARWELL AVE,42.00667944500003,-87.66684152899995,census
44,Alley Resurfacing Menu,1442 W SCHOOL ST,2022,15402.765,38902,1442 W SCHOOL ST,41.941578320000076,-87.66527530399998,census
34,Curb & Gutter Menu,1444 W 123RD ST,2021,3578.7,30345,1444 W 123RD ST,41.67029963700003,-87.65800639699995,census
49,Sidewalk Menu,1445 W LUNT AVE,2022,5484.4,43040,1445 W LUNT AVE,42.00909973300003,-87.66696992499999,census
26,Sidewalk Menu,1446 N KILDARE AVE,2021,51631.255,23116,1446 N KILDARE AVE,41.90688344800003,-87.73379702699998,census
34,ADA - Alley Resurfacing Menu,1446 W 111TH ST,2018,3622.5,30236,1446 W 111TH ST,41.69216790000007,-87.65875418199994,census
34,Alley Resurfacing Menu,1446 W 111TH ST,2018,8506.955,30240,1446 W 111TH ST,41.69216790000007,-87.65875418199994,census
48,Sidewalk Menu,1446 W HOOD AVE,2021,3018.44,42178,1446 W HOOD AVE,41.99356084200008,-87.66640724099994,census
49,Sidewalk Menu,1448 W ARTHUR AVE,2021,12530.18,42975,1448 W ARTHUR AVE,41.999952558000075,-87.66745108599997,census
48,Sidewalk Menu,1451 W ELMDALE AVE,2021,3535.28,42179,1451 W ELMDALE AVE,41.99083740100008,-87.66639994499997,census
11,Guardrail Menu,1452 W FULLER ST,2007,1698,8629,1452 W FULLER ST,41.84248121200005,-87.66270882199996,census
47,Alley Speed Hump Menu,1454 W WARNER AVE,2021,700,41275,1454 W WARNER AVE,41.95707633500007,-87.66632574399995,census
26,Sidewalk Menu,1456 N HARDING AVE,2016,7717.84,22825,1456 N HARDING AVE,41.9079663,-87.7255236,google
47,Curb & Gutter Menu,1456 W BYRON ST,2016,33799.81,40966,1456 W BYRON ST,41.95251172400003,-87.66632724799996,census
44,Miscellaneous Other Projects,1456 W HENDERSON ST,2019,1246.66666666667,38790,1456 W HENDERSON ST,41.94248964800005,-87.66552124899994,census
48,Alley Apron Menu,1456 W HIGHLAND AVE,2016,24322.31,41832,1456 W HIGHLAND AVE,41.99730407000004,-87.66702595199996,census
1,Sidewalk Menu,1457 W ERIE ST,2019,4700.85,874,1457 W ERIE ST,41.89338106200006,-87.66447555199994,census
47,Miscellaneous Other,1458 W ARGYLE ST,2015,4200,40910,1458 W ARGYLE ST,41.972708,-87.6669586,google
4,Street Bump Outs Menu,1461 E HYDE PARK BLVD,2015,9444,3577,1461 E HYDE PARK BLVD,41.8022072,-87.5894226,google
4,Street Bump Outs Menu,1461 E HYDE PARK BLVD,2016,2374.05,3624,1461 E HYDE PARK BLVD,41.8022072,-87.5894226,google
27,Street Lighting,1463 W CHICAGO AV,2007,1250,23378,1463 W CHICAGO AV,41.8959471,-87.6648598,google
5,Miscellaneous CDOT Projects,1465 E 69TH PL,2022,150,4476,1465 E 69TH PL,41.76875573400008,-87.58883059399994,census
47,Alley Apron Menu,1466 W CUYLER AVE,2016,10922.53,40953,1466 W CUYLER AVE,41.95525186900005,-87.66654890199999,census
47,Alley Apron Menu,1466 W CUYLER AVE,2017,2006.99,41034,1466 W CUYLER AVE,41.95525186900005,-87.66654890199999,census
43,Pole Painting,147 W ARMITAGE AV,2008,200,37305,147 W ARMITAGE AV,41.917162,-87.7289086,google
43,Pole Painting,147 W MAPLE ST,2010,200,37435,147 W MAPLE ST,41.901825286000076,-87.63237763099994,census
47,Alley Speed Hump Menu,1470 W WINONA ST,2018,700,41124,1470 W WINONA ST,41.97532765200003,-87.66680188199996,census
48,Bollard Menu,1472 W BERWYN AV,2008,647,41555,1472 W BERWYN AV,41.9782722,-87.6676729,google
48,Alley Apron Menu,1473 W RASCHER AVE,2018,11047.79,41970,1473 W RASCHER AVE,41.98076622700006,-87.66749756199994,census
48,Bollard Menu,1473 W SUMMERDALE AV,2007,448,41499,1473 W SUMMERDALE AV,41.978949757000066,-87.66689669999994,census
48,Sidewalk Menu,1478 W GREGORY ST,2016,3004.4,41856,1478 W GREGORY ST,41.982562449000056,-87.66840173699995,census
17,Alley Apron Menu,1480 W 74TH ST,2022,8617.77666666667,15368,1480 W 74TH ST,41.759695,-87.6618699,google
3,Street Light Upgrade Menu,15 E 37TH ST,2022,500,3199,15 E 37TH ST,41.8273698,-87.6255394,google
27,Sidewalk Menu,150 W MAPLE ST,2016,9094.89,23749,150 W MAPLE ST,41.901828514000044,-87.63319757099998,census
5,Miscellaneous Other Projects,1500 E 68TH ST,2018,262.5,4391,1500 E 68TH ST,41.77149700500007,-87.58865464099995,census
43,POD Camera,1500 N Hudson,2008,12000,37353,1500 N Hudson,41.909346,-87.6400167,google
26,Alley Speed Hump Menu,1500 N KARLOV AVE,2019,1400,22965,1500 N KARLOV AVE,41.86054974900003,-87.72745501899999,census
26,Street Resurfacing Menu (1-5),1500 N KEDVALE AVE,2020,32767.95,23052,1500 N KEDVALE AVE,41.86053366900006,-87.72867706399995,census
37,Alley Resurfacing Menu (1-1),1500 N LOTUS AVE,2018,16722.695,32870,1500 N LOTUS AVE,41.907715780000046,-87.76212858799994,census
26,Alley Speed Hump Menu,1500 N TRIPP AVE,2019,2100,22966,1500 N TRIPP AVE,41.907746047000046,-87.73258539599999,census
24,Alley Resurfacing Menu (1-1),1500 S KOMENSKY AVE,2016,33649.17,21059,1500 S KOMENSKY AVE,41.86056582800006,-87.72623297299998,census
11,In-Road State Law Stop,1500 S PEORIA ST,2015,350,8959,1500 S PEORIA ST,41.8616116,-87.6490846,google
16,Sidewalk Menu,1500 W 63RD ST,2019,9585.21,14576,1500 W 63RD ST,41.7797709,-87.6621041,google
25,Sidewalk Menu,1500 W CULLERTON ST,2019,3055.84,22148,1500 W CULLERTON ST,41.85512449400005,-87.66373519999996,census
2,OEMC POD CAMERA - 1500 W DIVISION,1500 W DIVISION ST,2018,27011,2333,1500 W DIVISION ST,NA,NA,census
48,Bollard Menu,1500 W ELMDALE AV,2009,1792,41590,1500 W ELMDALE AV,41.990834147000044,-87.66773981499995,census
48,Sidewalk Menu,1500 W ELMDALE AVE,2017,7423.03,41938,1500 W ELMDALE AVE,41.990834147000044,-87.66773981499995,census
49,Miscellaneous Other,1500 W HOWARD ST,2013,117000,42572,1500 W HOWARD ST,42.01936969500008,-87.66891604299997,census
1,Sidewalk Menu,1500 W OHIO ST,2016,13293.87,692,1500 W OHIO ST,41.8926574,-87.665754,google
1,Street Resurfacing Menu,1500 W WALTON ST,2021,53111.55,974,1500 W WALTON ST,41.898845702000074,-87.66507067299995,census
2,Miscellaneous-CDOT,1500 W. Adams Parkway,2008,2129,1346,1500 W. Adams Parkway,41.8791465,-87.66466,google
7,Miscellaneous CDOT Projects,1501 E 73RD ST,2021,19684.08,5716,1501 E 73RD ST,41.76129205600006,-87.66218068699999,census
7,Miscellaneous Other Projects,1501 E 73RD ST,2018,120,5600,1501 E 73RD ST,41.76129205600006,-87.66218068699999,census
26,Alley Resurfacing Menu,1501 N KEYSTONE AVE,2022,11394.745,23137,1501 N KEYSTONE AVE,41.90816589700006,-87.72768456199998,census
11,In-Road State Law Stop,1501 S SANGAMON ST,2015,350,8960,1501 S SANGAMON ST,41.86146774100007,-87.64981838699998,census
48,Sidewalk Menu,1501 W THORNDALE AVE,2016,2490.07,41853,1501 W THORNDALE AVE,41.989933945000075,-87.66803201799996,census
2,Sidewalk Menu,1502 N HOYNE AVE,2015,5952,2200,1502 N HOYNE AVE,41.9085033,-87.6801872,google
25,Miscellaneous CDOT Projects,1502 W 18TH ST,2022,660,22278,1502 W 18TH ST,41.85783975700008,-87.66392702599995,census
3,New Alley Construction,1503 S State,2009,270,2656,1503 S State,41.8618165,-87.6270372,google
3,New Alley Construction,1503 S State,2011,5961,2726,1503 S State,41.8618165,-87.6270372,google
3,Concrete Alley Menu,1503 S State,2012,216149,2753,1503 S State,41.8618165,-87.6270372,google
26,Sidewalk Menu,1504 N KEDVALE AVE,2020,16479.58,23036,1504 N KEDVALE AVE,41.86048414600003,-87.72867543199999,census
25,Sidewalk Menu,1504 W CULLERTON ST,2022,17077.67,22286,1504 W CULLERTON ST,41.85512111600008,-87.66396149299999,census
49,Street Light Upgrade Menu,1504 W HOWARD ST,2018,683.333333333333,42879,1504 W HOWARD ST,42.01936969500008,-87.66896423799994,census
49,Alley Speed Hump Menu,1504 W JUNEWAY TER,2018,700,42835,1504 W JUNEWAY TER,42.02226120900008,-87.66921194199995,census
5,Miscellaneous CDOT Projects,1505 E 67TH PL,2016,531.77,4320,1505 E 67TH PL,41.772398675000034,-87.58852453499998,census
49,Street Light Upgrade,1505 W FARWELL AVE,2013,400,42611,1505 W FARWELL AVE,42.006647834000034,-87.66803804599994,census
5,Traffic Signal Miscellaneous Menu,1507 E 67TH PL,2016,532,4343,1507 E 67TH PL,41.77239892100005,-87.58849474899995,census
26,Alley Resurfacing Menu,1508 N KOLIN AVE,2022,22886.07,23138,1508 N KOLIN AVE,41.9079828,-87.7353355,google
25,Sidewalk Menu,1508 W 17TH ST,2020,17108.88,22191,1508 W 17TH ST,41.85874280400003,-87.66403562399995,census
49,Alley Apron Menu,1508 W ESTES AVE,2017,11125.51,42767,1508 W ESTES AVE,42.01152896100007,-87.66830787699996,census
16,Sidewalk Menu,1509 W 62ND ST,2016,33002.54,14465,1509 W 62ND ST,41.782885202000045,-87.58876912199997,census
2,Curb & Gutter Menu,151 E CHICAGO AVE,2016,2687.2,2239,151 E CHICAGO AVE,41.8965611,-87.6232847,google
28,Street Light Upgrade Menu,151 S WHIPPLE ST,2018,401.4775,24663,151 S WHIPPLE ST,41.878578762000075,-87.70237455099993,census
27,Curb & Gutter Menu,151 W BURTON PL,2018,2498.13,23834,151 W BURTON PL,41.90916556500008,-87.63364377999994,census
49,Sidewalk Menu,1510 W CHASE AVE,2017,5937.38,42794,1510 W CHASE AVE,42.01387588600005,-87.66842548199998,census
34,Miscellaneous CDOT Projects,1511 W 109TH PL,2019,750,30282,1511 W 109TH PL,41.69487086600003,-87.66039491999999,census
47,Sidewalk Menu,1511 W CULLOM AVE,2021,1963.76,41291,1511 W CULLOM AVE,41.95977373300008,-87.66856050799998,census
34,Miscellaneous CDOT Projects,1512 W 109TH PL,2019,750,30282,1512 W 109TH PL,41.69487173500005,-87.66080102599994,census
1,Alley Resurfacing Menu,1513 W GRAND AVE,2021,13032.105,944,1513 W GRAND AVE,41.89099197000007,-87.66581408099995,census
49,Alley Speed Hump Menu,1514 W JONQUIL TER,2018,2800,42834,1514 W JONQUIL TER,42.02114648500003,-87.66890334499999,census
3,Sidewalk Menu,1515 S INDIANA AVE,2019,18216.32,3028,1515 S INDIANA AVE,41.86288211300007,-87.62234537899997,census
25,Sidewalk Menu,1515 W 18TH ST,2021,5314.72,22229,1515 W 18TH ST,41.85782231300004,-87.66435346399999,census
49,Sidewalk Menu,1515 W NORTH SHORE AVE,2016,15415.65,42740,1515 W NORTH SHORE AVE,42.00356112800006,-87.66953968099995,census
32,Miscellaneous-CDOT,1515 W. Fullerton,2006,6213,27841,1515 W. Fullerton,41.9249663,-87.6665142,google
49,Curb & Gutter Menu,1517 W JARVIS AVE,2015,10591,42662,1517 W JARVIS AVE,42.0158847,-87.6688917,google
49,Alley Resurfacing Menu,1517 W JONQUIL TER,2016,23281.87,42715,1517 W JONQUIL TER,42.021135521000076,-87.66899058499996,census
19,POD Camera,1518 W 102 nd Pl,2006,24000,16332,1518 W 102 nd Pl,41.7079923,-87.6608873,google
34,Bollard Menu,1518 W 113 PL,2009,714,29727,1518 W 113 PL,41.68749104300008,-87.66033847699998,census
48,Street Speed Hump Menu,1518 W GLENLAKE AVE,2019,2350,42114,1518 W GLENLAKE AVE,41.99263629500007,-87.66822954299994,census
48,Mosaic Installation at Stephen K. Kayt Elementary School,1518 W GRANVILLE AVE,2022,15904.24,42233,1518 W GRANVILLE AVE,41.99446740600007,-87.66814757699996,census
47,Curb & Gutter Menu,1518 W WILSON AVE,2020,38531.1,41224,1518 W WILSON AVE,NA,NA,census
19,Alley Apron Menu,1519 W 105TH ST,2017,12601.28,16704,1519 W 105TH ST,41.703089109000075,-87.66017190999997,census
48,Sidewalk Menu,1519 W HIGHLAND AVE,2021,4580.76,42180,1519 W HIGHLAND AVE,41.99728177700007,-87.66829259999997,census
40,Street Lighting,1519 W SCHREIBER AV,2009,500,34944,1519 W SCHREIBER AV,41.99899968400007,-87.66812132999996,census
2,Alley Resurfacing Menu,1520 W DIVISION ST,2019,4330.325,2357,1520 W DIVISION ST,NA,NA,census
49,Heat lamp shelter bench installation at Jarvis Morse and northbound Loyola stations,1520 W JARVIS AVE,2017,3000,42785,1520 W JARVIS AVE,42.01605172100005,-87.66844255499996,census
26,Street Speed Hump Menu,1522 N KARLOV AVE,2019,2350,23005,1522 N KARLOV AVE,41.860277360000055,-87.72744599299995,census
26,Sidewalk Menu,1522 N KEDZIE AVE,2021,3527.79,23118,1522 N KEDZIE AVE,41.90900266700004,-87.70698926699998,census
25,Sidewalk Menu,1522 W 19TH ST,2021,2550.87,22230,1522 W 19TH ST,41.85602217400003,-87.66415474999997,census
32,Miscellaneous-CDOT,1522 W Wolfram,2010,4000,28131,1522 W Wolfram,41.93334174100005,-87.66691805799996,census
25,Sidewalk Menu,1523 W 18TH ST,2020,2396.77,22192,1523 W 18TH ST,41.85781953000003,-87.66461437899994,census
25,Sidewalk Menu,1523 W 18TH ST,2020,3389.63,22199,1523 W 18TH ST,41.85781953000003,-87.66461437899994,census
32,Curb & Gutter Menu,1523 W WOLFRAM ST,2017,16063.39,28415,1523 W WOLFRAM ST,41.93333712700007,-87.66650003999996,census
3,Sidewalk Menu,1528 S WABASH AVE,2022,31292.31,3190,1528 S WABASH AVE,41.86159861800007,-87.62569886899996,census
1,Bollard Menu,1530 N ELK GROVE AV,2009,448,313,1530 N ELK GROVE AV,41.90975649500007,-87.67469347999997,census
28,Miscellaneous CDOT Projects,1530 W TAYLOR ST,2019,3361.68176470588,24704,1530 W TAYLOR ST,41.86930332700007,-87.66430835199998,census
48,Alley Resurfacing Menu,1531 W DEVON AVE,2020,20783.85,42124,1531 W DEVON AVE,41.9978649,-87.6691394,google
27,POD Camera -  2 locations (328 N. Hoyne and 1532 W. Fulton),1532 W FULTON ST,2017,54022,23802,1532 W FULTON ST,41.8868379,-87.6659595,google
32,Alley Resurfacing Menu - Change Orde,1532 W Wrightwood,2010,81,28105,1532 W Wrightwood,41.9290293,-87.6671876,google
34,Street Light Upgrade Menu,1533 W 110TH ST,2017,6000,30220,1533 W 110TH ST,41.6937422,-87.6609967,google
48,Street Light Upgrade Menu,1533 W ARDMORE AVE,2016,400,41861,1533 W ARDMORE AVE,41.98805127500003,-87.66882115299995,census
48,Alley Apron Menu,1533 W THORNDALE AVE,2015,9191,41779,1533 W THORNDALE AVE,41.98992966600008,-87.66833842799997,census
48,Alley Resurfacing Menu,1533 W THORNDALE AVE,2017,8304.04,41887,1533 W THORNDALE AVE,41.98992966600008,-87.66833842799997,census
28,Street Light Upgrade,1534 S WASHTENAW AVE,2015,400,24549,1534 S WASHTENAW AVE,41.90885176900008,-87.69451287599998,census
24,Street Light Arterial,1535 S CHRISTIANA AVE,2013,3500,20959,1535 S CHRISTIANA AVE,41.86018672600005,-87.70913716299998,census
24,High Definition Camera,1535 S CHRISTIANA AVE,2013,22500,20962,1535 S CHRISTIANA AVE,41.86018672600005,-87.70913716299998,census
26,Curb & Gutter Menu,1536 N ST LOUIS AVE,2019,3620.24,22982,1536 N ST LOUIS AVE,41.9093504,-87.7145251,google
48,Curb & Gutter Menu,1536 W ELMDALE AVE,2015,2163,41791,1536 W ELMDALE AVE,41.99082587400005,-87.66829669999998,census
48,Street Speed Hump Menu,1536 W GLENLAKE AVE,2020,2350,42148,1536 W GLENLAKE AVE,41.99263091100005,-87.66862038799997,census
5,Bollard Menu,1537 E 73 ST,2007,2142,3959,1537 E 73 ST,41.76128516500006,-87.66248339199996,census
37,Curb & Gutter Menu,1538 N LECLAIRE AVE,2021,3276.62,33013,1538 N LECLAIRE AVE,41.908820595000066,-87.75347836199995,census
25,Sidewalk Menu,1538 W CULLERTON ST,2020,20667.72,22195,1538 W CULLERTON ST,41.855111392000026,-87.66461585599995,census
42,Alley Resurfacing Menu,154 W HUBBARD ST,2016,9182.34,36854,154 W HUBBARD ST,41.8902015,-87.6332718,google
37,Bollard Menu,1540 N LAWLER AV,2008,714,32498,1540 N LAWLER AV,41.90828834600006,-87.75223999099995,census
37,Bollard Menu,1541 N LAWLER AV,2008,714,32497,1541 N LAWLER AV,41.90829779100005,-87.75222538899999,census
1,Sidewalk Menu,1542 N CAMPBELL AVE,2019,10482.66,868,1542 N CAMPBELL AVE,NA,NA,census
2,Miscellaneous-CDOT,1542 W Jackson,2009,41121,1572,1542 W Jackson,41.8778761,-87.6660569,google
48,Alley Apron Menu,1542 W THOME AVE,2018,13551.74,41968,1542 W THOME AVE,41.99543456200007,-87.66923878299997,census
